     3.03           OBSERVATION DATA    M (MIXED)           RINEX VERSION / TYPE
teqc  2010Oct21                         20180406 12:07:25UTCCOMMENT             
gfzrnx-1.05-6819    FILE CONVERSION     20180410 140918 UTC PGM / RUN BY / DATE 
MSXP|IAx86-PII|bcc32 5.0|MSWin95->XP|486/DX+                COMMENT             
teqc  2017Jul18     gpsops              20171023 00:07:43UTCCOMMENT             
Linux 2.6.32-573.12.1.x86_64|x86_64|gcc -static|Linux 64|=+ COMMENT             
BIT 2 OF LLI FLAGS DATA COLLECTED UNDER A/S CONDITION       COMMENT             
GOLD                                                        MARKER NAME         
40405S031                                                   MARKER NUMBER       
DSN                 JPL                                     OBSERVER / AGENCY   
LT2380              JPS EGGDT           2.7.0               REC # / TYPE / VERS 
401-B               AOAD/M_T        NONE                    ANT # / TYPE        
 -2353614.3160 -4641385.3523  3676976.4340                  APPROX POSITION XYZ 
        0.0254        0.0000        0.0000                  ANTENNA: DELTA H/E/N
     1     1                                                WAVELENGTH FACT L1/2
    18                                                      LEAP SECONDS        
                                                            COMMENT             
This data is provided as a public service by NASA/JPL.      COMMENT             
No warranty is expressed or implied regarding suitability   COMMENT             
for use.  For further information, contact:                 COMMENT             
Dave Stowers, NASA/JPL m/s 238-600                          COMMENT             
4800 Oak Grove Drive, Pasadena CA 91109 USA                 COMMENT             
                                                            COMMENT             
Forced Modulo Decimation to 30 seconds                      COMMENT             
 SNR is mapped to RINEX snr flag value [0-9]                COMMENT             
  L1 & L2: min(max(int(snr_dBHz/6), 0), 9)                  COMMENT             
pseudorange smoothing corrections not applied               COMMENT             
teqc edited: all GLONASS satellites excluded                COMMENT             
                                                            COMMENT             
**********************************************************  COMMENT             
*              WARNING - FORMAT CONVERSION               *  COMMENT             
*  ----------------------------------------------------  *  COMMENT             
*  The data values (observation, loss of lock indicator  *  COMMENT             
*      (LLI), signal strength) are left as they are.     *  COMMENT             
*  The LLI meaning differs between versions 2 and 3 and  *  COMMENT             
*    the Interpretation of bit 1 and 2 has to be used    *  COMMENT             
*                  with caution !!!                      *  COMMENT             
**********************************************************  COMMENT             
                                                            COMMENT             
RINEX 2 -> 3 TYPE CONVERSION DETAILS:                       COMMENT             
-------------------------------------                       COMMENT             
   G C1  -> C1C                                             COMMENT             
   G P1  -> C1W                                             COMMENT             
   G P2  -> C2W                                             COMMENT             
-------------------------------------                       COMMENT             
                                                            COMMENT             
G    7 C1C L1  L2  C1W C2W S1  S2                           SYS / # / OBS TYPES 
    31                                                      # OF SATELLITES     
   G01  1017  1017   992   992   992  1017   992            PRN / # OF OBS      
   G02   817   817   816   816   816   817   816            PRN / # OF OBS      
   G03   749   749   748   748   748   749   748            PRN / # OF OBS      
   G05   979   979   977   977   977   979   977            PRN / # OF OBS      
   G06   907   907   905   905   905   907   905            PRN / # OF OBS      
   G07   916   916   916   916   916   916   916            PRN / # OF OBS      
   G08  1066  1066  1064  1064  1064  1066  1064            PRN / # OF OBS      
   G09   809   809   807   807   807   809   807            PRN / # OF OBS      
   G10   919   919   919   919   919   919   919            PRN / # OF OBS      
   G11  1071  1071  1068  1068  1068  1071  1068            PRN / # OF OBS      
   G12   771   771   771   771   771   771   771            PRN / # OF OBS      
   G13  1047  1047  1045  1045  1045  1047  1045            PRN / # OF OBS      
   G14   865   865   863   863   863   865   863            PRN / # OF OBS      
   G15  1042  1042  1041  1041  1041  1042  1041            PRN / # OF OBS      
   G16  1008  1008  1007  1007  1007  1008  1007            PRN / # OF OBS      
   G17   806   806   805   805   805   806   805            PRN / # OF OBS      
   G18   917   917   916   916   916   917   916            PRN / # OF OBS      
   G19   821   821   820   820   820   821   820            PRN / # OF OBS      
   G20   779   779   778   778   778   779   778            PRN / # OF OBS      
   G21   925   925   925   925   925   925   925            PRN / # OF OBS      
   G22   774   774   773   773   773   774   773            PRN / # OF OBS      
   G23   879   879   879   879   879   879   879            PRN / # OF OBS      
   G24  1034  1034  1032  1032  1032  1034  1032            PRN / # OF OBS      
   G25   945   945   944   944   944   945   944            PRN / # OF OBS      
   G26  1030  1030  1030  1030  1030  1030  1030            PRN / # OF OBS      
   G27  1046  1046  1044  1044  1044  1046  1044            PRN / # OF OBS      
   G28   917   917   916   916   916   917   916            PRN / # OF OBS      
   G29   853   853   853   853   853   853   853            PRN / # OF OBS      
   G30   885   885   884   884   884   885   884            PRN / # OF OBS      
   G31   899   899   898   898   898   899   898            PRN / # OF OBS      
   G32   835   835   835   835   835   835   835            PRN / # OF OBS      
    30.000                                                  INTERVAL            
  2017    10    22     0     0    0.0000000     GPS         TIME OF FIRST OBS   
  2017    10    22    23    59   30.0000000     GPS         TIME OF LAST OBS    
                                                            END OF HEADER      
> 2017 10 22 00 00 00.0000000  0 11
G01  21986984.346   115542444.452 7  90033070.25546  21986984.271    21986990.820          47.000          40.0004
G03  24688719.546   129740119.035 5 101096220.16044  24688722.926    24688732.866          33.000          27.0004
G08  24911667.419   130911646.773 6 102009129.78843  24911666.756    24911677.199          38.000          22.0004
G10  22489865.015   118185083.477 7  92092299.65046  22489864.188    22489870.524          46.000          37.0004
G11  22074052.100   115999964.609 8  90389611.87246  22074051.670    22074055.163          48.000          37.0004
G14  20859208.957   109615980.949 8  85415073.23447  20859208.064    20859211.378          50.000          45.0004
G18  24687889.982   129735746.642 5 101092810.21542  24687888.248    24687895.846          35.000          16.0004
G22  22953018.062   120618978.727 7  93988845.87446  22953017.571    22953020.390          45.000          36.0004
G25  24887879.694   130786720.124 6 101911741.69843  24887879.380    24887887.900          37.000          18.0004
G31  20813515.084   109375854.360 8  85227979.76847  20813514.882    20813517.916          52.000          45.0004
G32  21476071.993   112857595.514 8  87941017.11947  21476072.129    21476077.449          53.000          46.0004
> 2017 10 22 00 00 30.0000000  0 11
G01  21976002.527   115484736.366 7  89988102.94746  21976002.519    21976009.477          46.000          41.0004
G03  24672043.256   129652465.607 6 101027918.84144  24672044.924    24672050.940          38.000          25.0004
G08  24926168.147   130987853.277 5 102068511.36543  24926166.400    24926178.746          35.000          20.0004
G10  22502151.098   118249652.317 7  92142613.00046  22502151.113    22502157.286          46.000          37.0004
G11  22074565.498   116002659.998 7  90391712.18546  22074564.516    22074568.082          47.000          37.0004
G14  20865249.912   109647726.186 8  85439809.78047  20865249.060    20865252.449          50.000          46.0004
G18  24702554.657   129812791.835 6 101152845.57841  24702551.978    24702554.540          38.000          11.0004
G22  22938538.139   120542882.833 7  93929550.38846  22938536.985    22938539.921          44.000          36.0004
G25  24879909.781   130744819.075 6 101879091.64743  24879908.982    24879916.268          40.000          23.0004
G31  20802518.701   109318066.494 8  85182950.29747  20802518.406    20802521.374          52.000          46.0004
G32  21486717.811   112913539.398 8  87984609.75047  21486717.960    21486723.280          52.000          46.0004
> 2017 10 22 00 01 00.0000000  0 11
G01  21965113.241   115427513.878 8  89943514.00146  21965113.526    21965119.977          48.000          40.0004
G03  24655356.292   129564776.203 6 100959589.58644  24655356.999    24655365.781          37.000          26.0004
G08  24940671.311   131064069.755 6 102127900.84343  24940671.721    24940679.733          38.000          21.0004
G10  22514483.967   118314457.738 7  92193110.70146  22514483.397    22514489.582          47.000          37.0004
G11  22075193.132   116005961.044 8  90394284.44046  22075192.753    22075196.242          48.000          38.0004
G14  20871338.970   109679723.947 8  85464743.10047  20871338.049    20871341.329          51.000          46.0004
G18  24717241.749   129889990.153 6 101213000.05142  24717241.202    24717248.154          37.000          17.0004
G22  22924069.656   120466846.340 7  93870301.18746  22924068.226    22924070.740          47.000          36.0004
G25  24872009.109   130703309.182 6 101846746.32844  24872009.145    24872016.909          39.000          25.0004
G31  20791623.612   109260817.042 8  85138340.37147  20791623.781    20791626.911          53.000          45.0004
G32  21497399.133   112969668.365 8  88028346.60447  21497399.048    21497404.317          53.000          46.0004
> 2017 10 22 00 01 30.0000000  0 11
G01  21954317.045   115370779.173 7  89899305.16046  21954317.052    21954323.672          47.000          40.0004
G03  24638663.957   129477051.474 6 100891232.76143  24638663.595    24638671.946          38.000          23.0004
G08  24955176.552   131140293.838 5 102187296.20243  24955174.655    24955186.143          34.000          18.0004
G10  22526861.003   118379499.792 7  92243792.80346  22526860.895    22526866.821          46.000          37.0004
G11  22075936.676   116009867.578 8  90397328.50146  22075936.256    22075939.829          49.000          37.0004
G14  20877475.230   109711972.744 8  85489872.02747  20877474.729    20877477.951          50.000          45.0004
G18  24731959.492   129967341.289 5 101273273.71342  24731957.569    24731960.582          31.000          15.0004
G22  22909610.920   120390870.792 7  93811099.47346  22909610.091    22909612.382          46.000          36.0004
G25  24864186.413   130662192.799 6 101814707.64743  24864184.362    24864192.936          40.000          23.0004
G31  20780832.919   109204108.501 8  85094151.93247  20780832.721    20780835.717          53.000          46.0004
G32  21508114.722   113025981.023 8  88072226.59647  21508114.829    21508120.232          53.000          46.0004
> 2017 10 22 00 02 00.0000000  0 11
G01  21943614.265   115314534.248 7  89855477.96546  21943614.473    21943621.044          47.000          41.0004
G03  24621964.504   129389292.182 6 100822848.99444  24621964.393    24621971.855          39.000          24.0004
G08  24969681.972   131216522.350 6 102246695.00143  24969682.533    24969691.817          38.000          22.0004
G10  22539282.737   118444778.335 7  92294659.17846  22539282.691    22539288.952          46.000          37.0004
G11  22076794.650   116014378.294 8  90400843.35146  22076794.413    22076798.313          48.000          38.0004
G14  20883659.819   109744471.104 8  85515195.41947  20883659.023    20883662.301          51.000          45.0004
G18  24746711.949   130044844.508 6 101333665.85743  24746709.307    24746714.113          38.000          18.0004
G22  22895165.975   120314957.212 7  93751946.05246  22895164.562    22895166.935          46.000          36.0004
G25  24856431.351   130621472.362 5 101782977.50242  24856432.903    24856441.920          33.000          17.0004
G31  20770144.866   109147942.482 8  85050386.23247  20770144.635    20770147.808          53.000          45.0004
G32  21518864.879   113082475.877 8  88116248.55647  21518865.375    21518870.892          52.000          46.0004
> 2017 10 22 00 02 30.0000000  0 11
G01  21933005.115   115258781.334 7  89812034.14146  21933004.826    21933011.347          46.000          41.0004
G03  24605258.016   129301499.026 6 100754438.79343  24605257.634    24605263.304          40.000          23.0004
G08  24984189.092   131292752.599 6 102306095.18943  24984187.948    24984196.625          39.000          20.0004
G10  22551749.675   118510293.536 7  92345709.95146  22551749.513    22551756.072          46.000          36.0004
G11  22077768.317   116019492.758 7  90404828.64846  22077767.945    22077771.221          47.000          37.0004
G14  20889891.121   109777217.586 8  85540712.15547  20889890.323    20889893.895          51.000          45.0004
G18  24761485.821   130122500.020 6 101394176.58241  24761486.208    24761488.344          37.000          10.0004
G22  22880731.249   120239106.852 7  93692841.89146  22880730.043    22880733.530          46.000          37.0004
G25  24848766.383   130581150.686 7 101751557.98043  24848764.351    24848767.577          44.000          20.0004
G31  20759560.071   109092321.090 8  85007044.91947  20759560.226    20759563.104          52.000          46.0004
G32  21529650.418   113139151.662 8  88160411.50547  21529650.495    21529655.963          51.000          46.0004
> 2017 10 22 00 03 00.0000000  0 11
G01  21922490.184   115203522.259 7  89768975.11546  21922489.476    21922495.832          46.000          40.0004
G03  24588544.480   129213672.566 6 100686002.76444  24588544.507    24588551.265          40.000          25.0004
G08  24998692.618   131368981.441 5 102365494.32843  24998693.284    24998704.453          35.000          20.0004
G10  22564262.979   118576045.076 7  92396944.89046  22564262.351    22564268.177          44.000          36.0004
G11  22078856.307   116025210.510 7  90409284.04146  22078855.730    22078859.373          47.000          37.0004
G14  20896169.286   109810210.662 8  85566421.04747  20896168.576    20896172.156          50.000          45.0004
G18  24776296.570   130200306.953 6 101454805.57743  24776291.888    24776297.953          36.000          18.0004
G22  22866310.207   120163320.885 7  93633787.91945  22866309.085    22866310.873          47.000          35.0004
G25  24841166.243   130541230.002 6 101720450.92144  24841166.652    24841175.036          38.000          26.0004
G31  20749080.210   109037246.260 8  84964129.47947  20749079.989    20749082.782          53.000          47.0004
G32  21540469.372   113196006.670 8  88204714.10947  21540469.602    21540475.064          52.000          45.0004
> 2017 10 22 00 03 30.0000000  0 11
G01  21912068.723   115148759.174 7  89726302.59046  21912068.545    21912074.906          47.000          41.0004
G03  24571825.969   129125813.762 6 100617541.33144  24571827.084    24571832.484          39.000          29.0004
G08  25013199.026   131445206.212 6 102424890.17043  25013198.974    25013210.354          36.000          19.0004
G10  22576819.988   118642032.952 7  92448363.99146  22576818.969    22576825.170          45.000          36.0004
G11  22080058.951   116031530.485 8  90414208.68746  22080058.265    22080062.205          49.000          38.0004
G14  20902494.689   109843449.301 8  85592321.27547  20902493.807    20902497.169          51.000          45.0004
G18  24791128.097   130278265.590 6 101515552.37342  24791127.950    24791129.955          38.000          14.0004
G22  22851900.587   120087600.872 7  93574785.32946  22851899.720    22851902.789          46.000          36.0004
G25  24833646.255   130501712.769 6 101689658.37644  24833645.482    24833654.670          37.000          24.0004
G31  20738703.761   108982720.057 8  84921641.57847  20738703.610    20738706.888          53.000          46.0004
G32  21551322.484   113253039.663 8  88249155.40047  21551322.593    21551328.173          52.000          45.0004
> 2017 10 22 00 04 00.0000000  0 11
G01  21901741.616   115094494.044 7  89684018.07346  21901741.607    21901748.383          47.000          41.0004
G03  24555101.712   129037923.107 6 100549055.25144  24555101.150    24555107.384          40.000          25.0004
G08  25027703.672   131521423.609 6 102484280.32143  25027703.125    25027712.046          36.000          20.0004
G10  22589421.156   118708257.129 7  92499967.21846  22589420.979    22589427.159          46.000          36.0004
G11  22081375.741   116038451.727 8  90419601.85746  22081375.459    22081378.934          48.000          37.0004
G14  20908865.916   109876931.860 8  85618411.57847  20908865.221    20908868.749          49.000          45.0004
G18  24805987.514   130356374.904 4 101576416.97342  24805988.586    24805994.036          29.000          14.0004
G22  22837503.569   120011946.753 7  93515834.11146  22837502.957    22837506.155          45.000          37.0004
G25  24826201.046   130462601.330 6 101659182.08743  24826200.220    24826213.098          36.000          21.0004
G31  20728433.185   108928744.020 8  84879582.35947  20728432.620    20728435.494          52.000          46.0004
G32  21562209.187   113310249.131 8  88293734.20247  21562209.318    21562214.617          50.000          45.0004
> 2017 10 22 00 04 30.0000000  0 11
G01  21891511.447   115040728.916 8  89642123.16246  21891511.143    21891517.516          49.000          41.0004
G03  24538369.634   128950001.619 6 100480545.02344  24538369.680    24538377.293          38.000          26.0004
G08  25042203.968   131597631.231 5 102543662.94343  25042204.213    25042213.888          35.000          19.0004
G10  22602067.950   118774717.527 7  92551754.50746  22602068.086    22602074.872          46.000          37.0004
G11  22082807.603   116045973.785 8  90425463.19846  22082806.683    22082810.268          48.000          37.0004
G14  20915283.414   109910656.501 8  85644690.52047  20915282.816    20915286.353          50.000          45.0004
G18  24820883.372   130434634.989 6 101637398.79343  24820883.771    24820888.727          37.000          19.0004
G22  22823120.856   119936360.389 7  93456935.65746  22823119.552    22823121.688          46.000          36.0004
G25  24818841.088   130423898.320 7 101629023.96744  24818840.051    24818847.515          43.000          25.0004
G31  20718266.583   108875320.393 8  84837953.57147  20718266.544    20718269.069          52.000          45.0004
G32  21573129.222   113367633.682 8  88338449.44047  21573129.164    21573134.611          52.000          45.0004
> 2017 10 22 00 05 00.0000000  0 11
G01  21881374.874   114987465.775 7  89600619.41546  21881374.979    21881381.468          47.000          41.0004
G03  24521632.927   128862049.980 6 100412011.33744  24521632.806    24521640.675          37.000          25.0004
G08  25056704.366   131673826.077 6 102603035.52843  25056704.517    25056714.832          38.000          21.0004
G10  22614760.698   118841414.095 7  92603725.82646  22614759.968    22614766.253          44.000          36.0004
G11  22084352.977   116054095.705 8  90431791.95346  22084352.516    22084355.705          49.000          37.0004
G14  20921746.893   109944622.131 8  85671157.24447  20921746.111    20921749.808          50.000          45.0004
G18  24835805.035   130513045.360 5 101698497.87841  24835802.652    24835807.674          33.000           8.0004
G22  22808750.710   119860842.927 7  93398090.92246  22808749.328    22808751.909          47.000          38.0004
G25  24811553.079   130385606.140 6 101599185.75243  24811552.308    24811552.876          41.000          20.0004
G31  20708205.398   108822450.536 9  84796756.30947  20708205.183    20708208.461          54.000          46.0004
G32  21584082.195   113425191.911 8  88383300.00547  21584082.149    21584087.576          52.000          45.0004
> 2017 10 22 00 05 30.0000000  0 11
G01  21871335.436   114934706.649 8  89559508.40546  21871335.272    21871341.743          48.000          41.0004
G03  24504889.331   128774069.000 6 100343454.72244  24504890.272    24504896.137          38.000          25.0004
G08  25071201.104   131750005.206 6 102662395.89643  25071201.039    25071211.018          39.000          21.0004
G10  22627497.038   118908346.753 7  92655881.13046  22627496.834    22627503.021          44.000          36.0004
G11  22086012.307   116062816.448 7  90438587.33546  22086012.033    22086015.377          47.000          37.0004
G14  20928256.290   109978827.252 8  85697810.58947  20928255.402    20928258.812          49.000          45.0004
G18  24850753.743   130591605.562 5 101759713.61942  24850752.725    24850758.399          35.000          13.0004
G22  22794393.432   119785395.638 7  93339300.84446  22794392.188    22794394.994          46.000          37.0004
G25  24804342.735   130347727.102 6 101569669.61243  24804342.238    24804352.080          37.000          20.0004
G31  20698251.462   108770136.578 9  84755992.20647  20698250.702    20698253.540          54.000          46.0004
G32  21595067.990   113482922.519 8  88428284.89547  21595067.988    21595073.310          50.000          45.0004
> 2017 10 22 00 06 00.0000000  0 11
G01  21861391.901   114882453.370 8  89518791.56146  21861391.924    21861398.628          49.000          41.0004
G03  24488141.736   128686059.443 6 100274875.85244  24488143.421    24488150.952          39.000          24.0004
G08  25085692.325   131826166.017 5 102721741.98143  25085692.100    25085703.241          35.000          20.0004
G10  22640279.021   118975515.312 7  92708220.22846  22640278.658    22640285.018          45.000          36.0004
G11  22087785.800   116072135.092 7  90445848.60946  22087785.277    22087788.430          46.000          37.0004
G14  20934810.344   110013270.465 8  85724649.45547  20934809.587    20934813.074          49.000          45.0004
G18  24865730.687   130670315.355 4 101821045.88542  24865729.076    24865736.738          29.000          13.0004
G22  22780049.035   119710019.547 7  93280566.24146  22780047.918    22780050.269          46.000          37.0004
G25  24797212.477   130310263.474 5 101540477.30243  24797212.783    24797223.160          35.000          22.0004
G31  20688402.265   108718380.086 8  84715662.47847  20688401.570    20688404.270          53.000          46.0004
G32  21606086.071   113540823.900 8  88473402.85247  21606086.281    21606091.627          52.000          45.0004
> 2017 10 22 00 06 30.0000000  0 11
G01  21851544.913   114830707.896 7  89478470.41846  21851545.106    21851551.632          47.000          41.0004
G03  24471387.687   128598021.982 6 100206275.38444  24471389.111    24471396.622          38.000          25.0004
G08  25100183.757   131902305.539 6 102781071.45843  25100182.162    25100192.985          37.000          21.0004
G10  22653106.400   119042919.658 7  92760743.08246  22653105.432    22653111.820          46.000          36.0004
G11  22089672.796   116082051.018 7  90453575.29546  22089672.477    22089675.246          47.000          37.0004
G14  20941409.602   110047950.098 8  85751672.55947  20941408.997    20941412.324          51.000          44.0004
G18  24880738.736   130749174.433 5 101882494.70742  24880737.382    24880742.409          32.000          14.0004
G22  22765719.745   119634715.982 7  93221888.15346  22765719.066    22765721.234          47.000          37.0004
G25  24790166.886   130273217.747 6 101511610.60644  24790166.024    24790173.475          40.000          25.0004
G31  20678658.853   108667183.092 9  84675768.75547  20678658.481    20678661.896          54.000          46.0004
G32  21617136.792   113598894.765 8  88518652.87247  21617136.783    21617142.104          52.000          45.0004
> 2017 10 22 00 07 00.0000000  0 10
G01  21841795.963   114779472.130 8  89438546.43746  21841795.566    21841801.664          50.000          41.0004
G03  24454632.030   128509957.566 6 100137653.75744  24454632.156    24454639.022          39.000          26.0004
G08  25114665.986   131978420.533 5 102840381.85843  25114666.151    25114677.213          35.000          20.0004
G10  22665976.873   119110559.634 7  92813449.53146  22665976.657    22665983.157          45.000          36.0004
G11  22091673.122   116092562.846 8  90461766.32446  22091672.738    22091675.967          49.000          37.0004
G14  20948053.966   110082864.740 8  85778878.78047  20948053.133    20948056.323          50.000          45.0004
G22  22751404.165   119559485.915 7  93163267.37446  22751402.800    22751405.319          46.000          37.0004
G25  24783196.968   130236592.237 6 101483071.34844  24783196.791    24783204.844          41.000          27.0004
G31  20669024.597   108616547.035 8  84636312.10147  20669023.662    20669026.291          53.000          46.0004
G32  21628218.834   113657133.622 8  88564033.79847  21628219.289    21628224.712          50.000          44.0004
> 2017 10 22 00 07 30.0000000  0 10
G01  21832142.893   114728748.032 8  89399021.16947  21832142.861    21832149.689          50.000          42.0004
G03  24437870.827   128421866.959 6 100069011.83544  24437869.211    24437874.018          41.000          27.0004
G08  25129146.067   132054508.436 6 102899671.09743  25129145.937    25129156.087          36.000          20.0004
G10  22678892.462   119178435.261 7  92866339.59346  22678892.945    22678899.463          44.000          36.0004
G11  22093786.959   116103670.045 8  90470421.26146  22093786.124    22093789.708          48.000          37.0004
G14  20954742.352   110118013.266 8  85806267.25147  20954741.561    20954745.088          52.000          45.0004
G22  22737102.249   119484330.835 7  93104704.97646  22737101.284    22737103.623          46.000          38.0004
G25  24776305.506   130200389.328 6 101454861.29743  24776305.307    24776311.060          39.000          22.0004
G31  20659494.652   108566473.716 8  84597293.94247  20659494.544    20659497.544          53.000          46.0004
G32  21639333.353   113715539.202 8  88609544.63547  21639333.401    21639338.911          51.000          45.0004
> 2017 10 22 00 08 00.0000000  0 10
G01  21822587.509   114678537.520 7  89359896.11646  21822587.449    21822594.724          47.000          41.0004
G03  24421100.339   128333751.018 6 100000350.12844  24421100.823    24421108.208          38.000          24.0004
G08  25143620.780   132130566.498 6 102958937.14343  25143618.263    25143628.452          36.000          21.0004
G10  22691855.790   119246546.367 7  92919413.16646  22691854.365    22691860.236          46.000          36.0004
G11  22096013.187   116115371.286 7  90479539.10446  22096012.828    22096016.194          45.000          37.0004
G14  20961475.007   110153394.191 8  85833836.82047  20961474.229    20961477.801          51.000          45.0004
G22  22722815.752   119409251.984 7  93046202.00246  22722814.037    22722817.216          47.000          38.0004
G25  24769500.473   130164611.206 6 101426982.18143  24769499.050    24769504.085          41.000          20.0004
G31  20650073.029   108516965.105 9  84558715.83947  20650073.098    20650076.213          54.000          46.0004
G32  21650478.754   113774110.147 8  88655184.32147  21650478.923    21650484.576          52.000          45.0004
> 2017 10 22 00 08 30.0000000  0 10
G01  21813131.772   114628842.473 8  89321172.71847  21813131.526    21813138.004          48.000          42.0004
G03  24404327.111   128245610.584 6  99931669.42644  24404327.350    24404334.360          39.000          26.0004
G08  25158086.132   132206592.099 5 103018177.90542  25158084.731    25158095.807          35.000          17.0004
G10  22704860.489   119314892.815 7  92972670.12745  22704859.957    22704866.470          46.000          35.0004
G11  22098353.489   116127665.780 8  90489119.22246  22098352.415    22098355.797          49.000          37.0004
G14  20968251.827   110189005.889 8  85861586.20447  20968251.069    20968254.388          49.000          45.0004
G22  22708543.295   119334250.706 7  92987759.45646  22708542.233    22708544.427          47.000          37.0004
G25  24762769.558   130129260.300 6 101399436.10144  24762769.910    24762779.516          39.000          24.0004
G31  20640760.827   108468022.663 8  84520578.88347  20640760.376    20640762.873          53.000          46.0004
G32  21661655.738   113832845.101 8  88700951.80947  21661655.735    21661661.458          52.000          45.0004
> 2017 10 22 00 09 00.0000000  0 10
G01  21803772.657   114579664.750 7  89282852.44446  21803772.845    21803779.822          46.000          41.0004
G03  24387548.636   128157446.577 6  99862970.20344  24387550.500    24387556.402          38.000          25.0004
G08  25172543.879   132282581.919 5 103077390.77243  25172545.309    25172558.052          34.000          20.0004
G10  22717909.610   119383474.514 7  93026110.37846  22717910.667    22717917.179          44.000          36.0004
G11  22100805.685   116140552.440 8  90499160.74846  22100804.602    22100808.287          49.000          38.0004
G14  20975072.332   110224846.976 8  85889514.32547  20975071.308    20975074.760          51.000          45.0004
G22  22694285.098   119259327.839 7  92929378.03746  22694283.967    22694286.786          47.000          37.0004
G25  24756126.182   130094338.760 6 101372224.63244  24756125.283    24756133.696          41.000          25.0004
G31  20631554.533   108419648.097 8  84482884.43347  20631554.481    20631557.620          52.000          46.0004
G32  21672863.438   113891742.668 8  88746846.00747  21672863.509    21672869.289          51.000          44.0004
> 2017 10 22 00 09 30.0000000  0 10
G01  21794513.402   114531006.068 7  89244936.62746  21794513.285    21794520.197          46.000          41.0004
G03  24370771.846   128069259.473 7  99794253.22444  24370769.475    24370776.583          42.000          27.0004
G08  25186999.474   132358533.176 5 103136573.60043  25186998.836    25187009.540          35.000          18.0004
G10  22731007.426   119452291.240 7  93079733.77345  22731006.371    22731012.754          45.000          35.0004
G11  22103370.086   116154030.038 8  90509662.75646  22103369.542    22103372.988          48.000          37.0004
G14  20981935.852   110260915.963 8  85917620.03547  20981935.054    20981938.516          51.000          45.0004
G22  22680043.898   119184484.636 7  92871058.65446  22680042.796    22680044.820          46.000          38.0004
G25  24749562.145   130059848.966 6 101345349.49344  24749562.058    24749569.758          41.000          24.0004
G31  20622457.148   108371842.854 8  84445633.63047  20622457.431    20622460.368          52.000          46.0004
G32  21684101.897   113950801.459 8  88792865.82347  21684102.072    21684107.804          51.000          45.0004
> 2017 10 22 00 10 00.0000000  0 10
G01  21785353.583   114482868.328 7  89207426.72547  21785353.420    21785360.431          47.000          42.0004
G03  24353979.913   127981050.394 6  99725518.94444  24353981.210    24353990.209          37.000          24.0004
G08  25201444.969   132434443.410 6 103195724.40442  25201444.722    25201453.190          36.000          17.0004
G10  22744145.990   119521342.754 7  93133540.13245  22744146.280    22744152.675          45.000          35.0004
G11  22106047.996   116168097.282 8  90520624.22946  22106046.473    22106049.835          49.000          37.0004
G14  20988842.660   110297211.686 8  85945902.41747  20988841.838    20988845.405          50.000          45.0004
G22  22665816.576   119109722.348 8  92812802.35646  22665815.178    22665818.294          48.000          38.0004
G25  24743083.026   130025793.092 7 101318812.42143  24743082.062    24743088.656          42.000          23.0004
G31  20613469.487   108324608.631 8  84408827.75547  20613469.430    20613471.886          52.000          46.0004
G32  21695371.054   114010020.127 8  88839010.22347  21695371.144    21695376.797          52.000          44.0004
> 2017 10 22 00 10 30.0000000  0 10
G01  21776292.285   114435253.295 8  89170324.12747  21776292.566    21776298.945          48.000          42.0004
G03  24337195.147   127892820.197 6  99656768.18344  24337194.979    24337200.496          38.000          29.0004
G08  25215883.076   132510309.567 6 103254841.01243  25215881.753    25215890.569          39.000          18.0004
G10  22757330.056   119590629.050 7  93187529.40345  22757331.034    22757337.490          44.000          35.0004
G11  22108836.283   116182753.273 7  90532044.46446  22108835.386    22108838.930          47.000          37.0004
G14  20995792.774   110333732.594 8  85974360.26947  20995791.668    20995795.058          51.000          45.0004
G22  22651606.586   119035042.546 8  92754610.31646  22651604.957    22651606.930          48.000          39.0004
G25  24736678.023   129992173.292 5 101292615.23243  24736680.858    24736689.444          35.000          18.0004
G31  20604589.625   108277947.009 9  84372468.07147  20604589.767    20604592.594          54.000          46.0004
G32  21706670.333   114069397.369 8  88885278.18647  21706670.421    21706675.836          51.000          44.0004
> 2017 10 22 00 11 00.0000000  0 10
G01  21767331.425   114388162.752 8  89133630.23847  21767331.345    21767338.463          49.000          42.0004
G03  24320402.124   127804569.496 6  99588001.52344  24320400.687    24320406.083          41.000          26.0004
G08  25230310.966   132586129.148 6 103313921.18543  25230308.930    25230318.954          37.000          18.0004
G10  22770561.451   119660149.870 7  93241701.44445  22770560.340    22770566.892          45.000          35.0004
G11  22111736.681   116197996.950 8  90543922.64146  22111736.004    22111739.667          49.000          37.0004
G14  21002784.685   110370477.202 8  86002992.42947  21002783.873    21002787.314          51.000          44.0004
G22  22637409.779   118960446.459 7  92696483.51346  22637408.955    22637411.557          46.000          38.0004
G25  24730372.235   129958991.865 6 101266759.62743  24730370.032    24730375.669          41.000          18.0004
G31  20595819.875   108231859.458 9  84336555.71947  20595819.548    20595822.467          54.000          46.0004
G32  21717999.258   114128931.808 8  88931668.63847  21717999.487    21718004.776          50.000          44.0004
> 2017 10 22 00 11 30.0000000  0 10
G01  21758470.988   114341598.542 8  89097346.46247  21758471.006    21758476.938          49.000          42.0004
G03  24303600.362   127716299.358 5  99519219.77044  24303601.152    24303611.299          35.000          27.0004
G08  25244726.247   132661899.272 5 103372962.86143  25244726.953    25244737.830          32.000          20.0004
G10  22783834.297   119729905.086 7  93296056.14145  22783834.418    22783840.893          45.000          35.0004
G11  22114748.435   116213826.937 7  90556257.67046  22114748.477    22114752.082          47.000          37.0004
G14  21009819.038   110407444.127 8  86031797.81647  21009818.328    21009821.821          49.000          45.0004
G22  22623232.642   118885935.408 7  92638422.98046  22623230.829    22623232.538          47.000          38.0004
G25  24724142.393   129926251.212 7 101241247.40144  24724141.048    24724146.832          44.000          26.0004
G31  20587159.455   108186347.818 9  84301092.11947  20587159.131    20587161.708          54.000          46.0004
G32  21729358.454   114188622.166 8  88978180.58947  21729358.232    21729363.738          51.000          45.0004
> 2017 10 22 00 12 00.0000000  0 10
G01  21749710.155   114295562.304 8  89061474.09547  21749710.033    21749717.153          50.000          42.0004
G03  24286803.386   127628010.733 6  99450423.40544  24286803.446    24286808.772          40.000          28.0004
G08  25259137.732   132737617.031 6 103431963.79542  25259135.870    25259146.549          37.000          17.0004
G10  22797153.131   119799894.526 7  93350593.33445  22797153.035    22797159.315          45.000          35.0004
G11  22117873.230   116230242.164 8  90569048.75546  22117872.362    22117875.691          48.000          37.0004
G14  21016895.682   110444632.144 8  86060775.48747  21016895.069    21016898.514          51.000          45.0004
G22  22609068.241   118811510.507 7  92580429.57546  22609067.359    22609069.862          47.000          37.0004
G25  24717994.975   129893953.307 7 101216080.19144  24717994.323    24718001.443          42.000          27.0004
G31  20578608.630   108141413.192 9  84266078.14747  20578608.123    20578610.851          54.000          46.0004
G32  21740746.623   114248467.077 8  89024812.97047  21740746.291    21740751.770          51.000          45.0004
> 2017 10 22 00 12 30.0000000  0 10
G01  21741050.564   114250055.737 8  89026014.46947  21741050.525    21741057.197          50.000          42.0004
G03  24269998.040   127539704.138 6  99381613.28244  24269995.955    24270007.152          39.000          27.0004
G08  25273534.398   132813279.501 6 103490921.57443  25273534.544    25273545.041          36.000          18.0004
G10  22810516.825   119870117.868 7  93405312.81545  22810516.237    22810522.409          44.000          34.0004
G11  22121107.840   116247241.323 7  90582294.83646  22121107.005    22121110.629          46.000          37.0004
G14  21024014.204   110482039.535 8  86089924.09447  21024013.326    21024016.872          50.000          45.0004
G22  22594923.800   118737172.891 8  92522504.20346  22594922.040    22594923.888          49.000          38.0004
G25  24711929.859   129862100.026 5 101191259.55443  24711928.799    24711939.048          34.000          21.0004
G31  20570167.812   108097056.975 8  84231514.88647  20570167.528    20570170.289          53.000          47.0004
G32  21752163.893   114308465.185 8  89071564.72747  21752163.686    21752168.993          53.000          44.0004
> 2017 10 22 00 13 00.0000000  0 10
G01  21732491.908   114205080.790 8  88990969.08047  21732492.105    21732498.617          50.000          42.0004
G03  24253190.063   127451381.085 6  99312790.00444  24253191.447    24253196.509          38.000          28.0004
G08  25287918.981   132888884.125 5 103549834.35943  25287920.732    25287931.486          34.000          18.0004
G10  22823923.403   119940575.199 7  93460214.60045  22823923.688    22823930.016          44.000          35.0004
G11  22124452.551   116264823.228 7  90595995.02446  22124452.577    22124456.254          47.000          37.0004
G14  21031174.099   110519664.959 8  86119242.59747  21031173.328    21031176.676          50.000          45.0004
G22  22580793.752   118662924.083 7  92464648.02846  22580792.568    22580795.359          47.000          38.0004
G25  24705954.965   129830694.000 6 101166787.41243  24705954.245    24705962.758          39.000          22.0004
G31  20561837.490   108053281.082 9  84197403.82447  20561837.237    20561839.980          54.000          46.0004
G32  21763610.121   114368615.381 8  89118435.00647  21763609.946    21763615.247          51.000          44.0004
> 2017 10 22 00 13 30.0000000  0 10
G01  21724034.968   114160638.873 8  88956339.05447  21724034.951    21724041.610          50.000          42.0004
G03  24236381.141   127363041.952 6  99243954.44244  24236381.215    24236386.750          40.000          27.0004
G08  25302299.695   132964428.293 6 103608699.98343  25302297.018    25302306.988          37.000          18.0004
G10  22837376.242   120011266.003 7  93515298.32245  22837375.676    22837382.510          45.000          35.0004
G11  22127909.918   116282986.077 8  90610147.87446  22127908.848    22127912.658          49.000          37.0004
G14  21038374.995   110557506.975 8  86148729.86847  21038374.310    21038377.853          51.000          45.0004
G22  22566681.274   118588765.248 7  92406861.97146  22566680.624    22566682.795          46.000          38.0004
G25  24700065.099   129799737.128 6 101142665.14443  24700064.394    24700070.430          40.000          22.0004
G31  20553617.295   108010086.724 8  84163745.90747  20553617.369    20553620.158          53.000          46.0004
G32  21775084.486   114428916.103 8  89165422.57147  21775084.751    21775090.127          51.000          44.0004
> 2017 10 22 00 14 00.0000000  0  9
G01  21715679.497   114116731.840 8  88922125.79647  21715679.702    21715686.406          48.000          42.0004
G03  24219566.129   127274687.877 6  99175107.11744  24219565.551    24219573.924          40.000          27.0004
G10  22850873.016   120082190.247 7  93570563.96345  22850872.351    22850878.263          46.000          35.0004
G11  22131475.430   116301728.957 7  90624752.70946  22131475.377    22131479.184          46.000          37.0004
G14  21045617.608   110595564.492 8  86178385.07047  21045616.517    21045620.031          50.000          45.0004
G22  22552587.429   118514698.324 7  92349147.50546  22552586.253    22552588.297          47.000          38.0004
G25  24694259.495   129769231.579 6 101118894.58843  24694260.168    24694266.008          41.000          23.0004
G31  20545509.131   107967475.297 8  84130542.22447  20545508.752    20545511.508          53.000          46.0004
G32  21786588.372   114489366.232 8  89212526.57047  21786588.190    21786593.284          50.000          44.0004
> 2017 10 22 00 14 30.0000000  0  9
G01  21707426.256   114073361.410 7  88888330.69047  21707426.442    21707433.239          46.000          42.0004
G03  24202752.314   127186320.005 6  99106249.02944  24202752.196    24202757.304          41.000          27.0004
G10  22864412.627   120153347.837 7  93626011.41545  22864412.825    22864419.252          43.000          34.0004
G11  22135153.143   116321050.762 8  90639808.65946  22135152.378    22135156.151          48.000          37.0004
G14  21052900.136   110633836.093 8  86208207.08847  21052899.420    21052902.841          50.000          45.0004
G22  22538510.290   118440723.793 8  92291505.06646  22538509.124    22538511.868          48.000          39.0004
G25  24688541.768   129739179.567 6 101095477.45844  24688540.869    24688548.653          41.000          25.0004
G31  20537512.072   107925448.570 8  84097794.13647  20537511.536    20537514.259          53.000          47.0004
G32  21798119.394   114549964.564 8  89259746.04547  21798119.464    21798124.883          51.000          44.0004
> 2017 10 22 00 15 00.0000000  0  9
G01  21699276.174   114030529.058 7  88854954.84147  21699276.070    21699282.365          47.000          42.0004
G03  24185933.529   127097938.832 7  99037380.63944  24185932.901    24185938.002          42.000          27.0004
G10  22877998.704   120224738.348 7  93681640.35645  22877998.358    22878004.696          45.000          34.0004
G11  22138939.683   116340949.856 7  90655314.44446  22138939.118    22138942.894          46.000          37.0004
G14  21060223.198   110672320.150 8  86238194.65447  21060222.589    21060226.081          50.000          44.0004
G22  22524451.342   118366843.055 7  92233935.69346  22524449.918    22524452.398          46.000          39.0004
G25  24682909.468   129709582.924 6 101072415.17444  24682908.274    24682916.310          39.000          26.0004
G31  20529625.157   107884007.237 8  84065502.20547  20529625.302    20529628.173          52.000          46.0004
G32  21809679.046   114610709.639 8  89307079.87147  21809678.965    21809684.377          49.000          43.0004
> 2017 10 22 00 15 30.0000000  0  9
G01  21691228.441   113988236.434 8  88821999.57547  21691228.003    21691234.532          49.000          42.0004
G03  24169108.618   127009545.670 6  98968502.84544  24169109.233    24169121.143          38.000          27.0004
G10  22891627.672   120296361.553 7  93737450.63445  22891627.822    22891633.943          45.000          35.0004
G11  22142835.485   116361424.913 7  90671269.03846  22142835.467    22142838.933          47.000          37.0004
G14  21067586.933   110711015.334 8  86268346.73847  21067586.190    21067589.398          52.000          45.0004
G22  22510410.610   118293057.719 8  92176440.67146  22510409.197    22510411.637          48.000          39.0004
G25  24677363.995   129680443.764 6 101049709.44544  24677362.433    24677371.849          40.000          24.0004
G31  20521850.785   107843152.732 9  84033667.54747  20521850.870    20521853.680          54.000          47.0004
G32  21821265.315   114671600.227 8  89354527.08747  21821265.906    21821271.359          52.000          44.0004
> 2017 10 22 00 16 00.0000000  0  9
G01  21683282.431   113946485.093 8  88789466.07847  21683282.470    21683289.198          49.000          42.0004
G03  24152288.709   126921141.207 6  98899616.26444  24152289.443    24152291.979          40.000          26.0004
G10  22905302.078   120368217.219 7  93793442.02745  22905301.324    22905307.698          45.000          35.0004
G11  22146841.014   116382474.417 8  90687671.24646  22146840.966    22146844.391          48.000          37.0004
G14  21074990.224   110749920.041 8  86298662.09747  21074989.388    21074992.965          50.000          45.0004
G22  22496388.107   118219369.288 7  92119021.14146  22496386.770    22496389.097          47.000          39.0004
G25  24671906.078   129651764.070 6 101027361.68244  24671906.142    24671913.003          40.000          25.0004
G31  20514188.793   107802886.567 8  84002291.33147  20514188.680    20514191.235          53.000          46.0004
G32  21832880.342   114732634.979 8  89402086.63847  21832880.538    21832885.897          51.000          43.0004
> 2017 10 22 00 16 30.0000000  0  9
G01  21675440.729   113905276.792 8  88757355.71747  21675440.999    21675447.744          50.000          42.0004
G03  24135463.644   126832726.632 6  98830721.84844  24135463.976    24135472.474          41.000          29.0004
G10  22919019.961   120440305.256 7  93849614.52245  22919019.185    22919025.949          46.000          35.0004
G11  22150956.272   116404097.181 7  90704520.15346  22150955.763    22150958.808          47.000          37.0004
G14  21082433.068   110789033.597 8  86329140.18247  21082432.364    21082435.915          49.000          44.0004
G22  22482384.461   118145779.120 8  92061678.20246  22482382.927    22482385.274          48.000          39.0004
G25  24666536.008   129623546.109 6 101005373.68844  24666536.611    24666543.218          40.000          25.0004
G31  20506638.428   107763210.046 9  83971374.57147  20506638.427    20506641.090          54.000          47.0004
G32  21844522.271   114793812.856 8  89449757.71347  21844522.229    21844527.546          50.000          43.0004
> 2017 10 22 00 17 00.0000000  0  9
G01  21667702.693   113864612.945 7  88725669.61947  21667702.700    21667709.416          47.000          42.0004
G03  24118636.705   126744302.822 6  98761820.20544  24118636.734    24118642.909          40.000          26.0004
G10  22932780.415   120512625.275 7  93905967.76645  22932781.375    22932787.685          44.000          34.0004
G11  22155179.628   116426291.431 7  90721814.38446  22155179.233    22155182.225          46.000          37.0004
G14  21089915.740   110828354.120 8  86359779.54547  21089914.977    21089918.377          51.000          44.0004
G22  22468399.184   118072288.367 8  92004412.70746  22468398.201    22468400.299          48.000          39.0004
G25  24661255.890   129595791.643 6 100983746.89443  24661253.630    24661261.039          40.000          23.0004
G31  20499200.430   107724124.186 9  83940918.08047  20499200.381    20499203.450          54.000          47.0004
G32  21856190.994   114855132.457 8  89497539.22047  21856190.900    21856196.283          51.000          43.0004
> 2017 10 22 00 17 30.0000000  0  9
G01  21660068.940   113824495.178 8  88694409.01947  21660068.787    21660075.352          50.000          42.0004
G03  24101810.020   126655870.840 6  98692912.18445  24101810.383    24101818.279          41.000          30.0004
G10  22946588.685   120585177.080 7  93962501.62145  22946588.047    22946593.984          45.000          34.0004
G11  22159512.001   116449055.957 7  90739552.98546  22159511.040    22159514.203          47.000          37.0004
G14  21097437.292   110867880.024 8  86390578.95047  21097436.377    21097439.871          50.000          44.0004
G22  22454433.684   117998898.393 7  91947225.75346  22454432.475    22454434.683          47.000          38.0004
G25  24656063.059   129568502.724 7 100962482.81943  24656061.478    24656068.946          42.000          22.0004
G31  20491876.009   107685630.203 9  83910922.78347  20491875.412    20491878.247          54.000          46.0004
G32  21867886.209   114916592.567 8  89545430.22147  21867886.294    21867891.858          50.000          43.0004
> 2017 10 22 00 18 00.0000000  0  9
G01  21652539.390   113784924.956 8  88663575.07747  21652539.237    21652545.534          48.000          43.0004
G03  24084979.148   126567431.540 6  98623998.49344  24084979.429    24084987.138          40.000          27.0004
G10  22960438.181   120657960.364 7  94019215.86645  22960437.755    22960444.067          46.000          34.0004
G11  22163951.845   116472388.965 8  90757734.56146  22163951.152    22163954.575          48.000          37.0004
G14  21104997.696   110907610.538 8  86421537.78947  21104996.979    21105000.519          51.000          45.0004
G22  22440486.535   117925610.671 7  91890118.46346  22440485.752    22440488.423          47.000          38.0004
G25  24650958.466   129541681.329 6 100941583.07444  24650957.136    24650965.385          40.000          25.0004
G31  20484663.544   107647729.633 9  83881389.87747  20484663.299    20484665.859          54.000          47.0004
G32  21879607.869   114978191.953 8  89593429.73647  21879608.216    21879613.819          51.000          44.0004
> 2017 10 22 00 18 30.0000000  0  9
G01  21645113.184   113745903.778 8  88633168.96447  21645113.374    21645119.941          49.000          43.0004
G03  24068149.603   126478986.059 6  98555079.96344  24068149.345    24068155.473          39.000          28.0004
G10  22974331.333   120730974.905 7  94076110.28245  22974331.716    22974338.174          44.000          33.0004
G11  22168499.764   116496289.030 7  90776358.00246  22168498.987    22168502.883          47.000          37.0004
G14  21112596.667   110947544.158 8  86452654.89447  21112596.140    21112599.517          50.000          45.0004
G22  22426560.788   117852426.489 7  91833091.86246  22426559.759    22426561.758          47.000          38.0004
G25  24645943.005   129515329.330 6 100921049.12144  24645942.662    24645950.859          40.000          26.0004
G31  20477564.123   107610423.525 9  83852320.20147  20477563.969    20477566.728          54.000          47.0004
G32  21891356.558   115039929.367 8  89641536.80547  21891356.574    21891361.960          52.000          43.0004
> 2017 10 22 00 19 00.0000000  0  9
G01  21637792.755   113707433.277 8  88603191.95547  21637792.826    21637798.975          50.000          43.0004
G03  24051316.904   126390535.399 6  98486157.41044  24051317.814    24051325.947          39.000          29.0004
G10  22988270.889   120804220.513 7  94133184.77745  22988270.466    22988276.682          44.000          34.0004
G11  22173155.165   116520754.724 7  90795422.18346  22173154.476    22173158.595          46.000          37.0004
G14  21120234.630   110987679.483 8  86483929.17547  21120233.648    21120237.094          50.000          45.0004
G22  22412654.320   117779347.415 8  91776147.15046  22412653.124    22412655.013          48.000          39.0004
G25  24641018.462   129489448.859 6 100900882.57044  24641017.251    24641025.690          41.000          25.0004
G31  20470578.068   107573712.830 9  83823714.47947  20470577.936    20470580.958          54.000          47.0004
G32  21903130.558   115101803.721 8  89689750.58247  21903130.823    21903136.316          50.000          43.0004
> 2017 10 22 00 19 30.0000000  0  9
G01  21630577.303   113669514.681 8  88573644.97947  21630577.094    21630583.819          48.000          43.0004
G03  24034484.611   126302080.427 6  98417231.54044  24034484.802    24034490.630          41.000          27.0004
G10  23002252.112   120877696.638 7  94190438.88745  23002252.234    23002258.471          44.000          33.0004
G11  22177918.636   116545784.318 7  90814925.76246  22177917.503    22177921.705          47.000          37.0004
G14  21127909.957   111028014.847 8  86515359.33547  21127909.256    21127912.559          50.000          44.0004
G22  22398768.389   117706374.695 8  91719285.31646  22398767.113    22398769.368          48.000          40.0004
G25  24636183.531   129464041.449 6 100881084.66344  24636183.291    24636191.250          41.000          25.0004
G31  20463706.176   107537598.929 8  83795573.79447  20463705.980    20463708.805          53.000          47.0004
G32  21914930.919   115163813.581 8  89738069.94647  21914930.903    21914936.364          51.000          43.0004
> 2017 10 22 00 20 00.0000000  0  9
G01  21623466.896   113632149.659 8  88544529.38047  21623466.659    21623473.328          50.000          43.0004
G03  24017650.611   126213622.404 6  98348303.24944  24017651.190    24017659.467          38.000          28.0004
G10  23016278.213   120951403.323 7  94247872.63045  23016278.411    23016284.905          43.000          34.0004
G11  22182788.274   116571376.198 7  90834867.49646  22182787.765    22182791.508          46.000          37.0004
G14  21135623.179   111068549.111 8  86546944.47947  21135622.505    21135626.129          51.000          44.0004
G22  22384901.907   117633509.674 8  91662507.40846  22384901.074    22384903.537          48.000          39.0004
G25  24631439.125   129439109.357 6 100861657.06243  24631437.934    24631443.661          39.000          22.0004
G31  20456948.321   107502082.955 9  83767899.01347  20456947.736    20456950.293          54.000          47.0004
G32  21926756.914   115225957.964 8  89786494.12347  21926756.608    21926762.141          50.000          43.0004
> 2017 10 22 00 20 30.0000000  0  9
G01  21616462.608   113595339.502 8  88515846.13047  21616462.261    21616468.651          50.000          43.0004
G03  24000818.151   126125162.236 6  98279373.32944  24000819.020    24000825.358          41.000          29.0004
G10  23030348.934   121025340.058 7  94305485.64545  23030348.058    23030354.104          44.000          34.0004
G11  22187765.434   116597528.786 7  90855246.13746  22187764.455    22187767.994          47.000          37.0004
G14  21143373.994   111109280.811 8  86578683.47047  21143373.553    21143377.086          50.000          45.0004
G22  22371057.736   117560753.952 8  91605814.66246  22371056.534    22371058.300          48.000          40.0004
G25  24626784.564   129414654.235 6 100842601.12143  24626782.089    24626788.931          39.000          19.0004
G31  20450302.840   107467165.736 8  83740690.79547  20450302.975    20450305.604          52.000          47.0004
G32  21938607.822   115288235.550 8  89835022.09847  21938607.701    21938613.080          50.000          43.0004
> 2017 10 22 00 21 00.0000000  0  9
G01  21609563.327   113559085.648 8  88487596.36247  21609563.253    21609569.522          49.000          43.0004
G03  23983986.121   126036700.945 7  98210442.49645  23983985.333    23983992.653          42.000          30.0004
G10  23044461.364   121099506.561 7  94363277.70745  23044461.251    23044467.804          45.000          33.0004
G11  22192847.283   116624240.287 8  90876060.30046  22192847.486    22192850.801          48.000          37.0004
G14  21151162.767   111150208.720 8  86610575.34947  21151161.875    21151165.386          51.000          44.0004
G22  22357233.290   117488108.804 7  91549208.05946  22357232.095    22357235.069          47.000          40.0004
G25  24622222.507   129390677.996 6 100823918.37143  24622220.962    24622227.940          40.000          20.0004
G31  20443772.217   107432848.403 9  83713950.04047  20443772.230    20443775.224          54.000          47.0004
G32  21950483.252   115350645.143 8  89883652.93847  21950483.797    21950489.226          50.000          43.0004
> 2017 10 22 00 21 30.0000000  0  9
G01  21602770.595   113523389.374 8  88459781.06747  21602770.502    21602777.016          48.000          43.0004
G03  23967152.665   125948239.582 6  98141511.65444  23967151.826    23967158.285          41.000          28.0004
G10  23058619.033   121173902.419 7  94421248.48645  23058618.493    23058624.648          45.000          33.0004
G11  22198037.692   116651509.245 7  90897308.84946  22198036.435    22198039.972          46.000          37.0004
G14  21158987.902   111191331.632 8  86642619.17747  21158987.366    21158990.820          49.000          44.0004
G22  22343430.930   117415575.637 8  91492688.72546  22343429.854    22343431.824          49.000          40.0004
G25  24617752.978   129367182.342 6 100805610.13443  24617750.751    24617758.015          41.000          23.0004
G31  20437356.693   107399131.868 8  83687677.43547  20437356.431    20437359.277          53.000          47.0004
G32  21962385.118   115413185.502 8  89932385.66847  21962384.976    21962390.276          51.000          43.0004
> 2017 10 22 00 22 00.0000000  0  9
G01  21596084.414   113488252.187 8  88432401.44147  21596084.266    21596090.518          50.000          43.0004
G03  23950316.656   125859779.231 6  98072581.57044  23950318.060    23950324.500          40.000          29.0004
G10  23072819.019   121248527.505 7  94479397.88545  23072819.111    23072825.436          43.000          33.0004
G11  22203331.265   116679333.744 7  90918990.27446  22203331.229    22203334.929          47.000          37.0004
G14  21166850.504   111232648.337 8  86674814.01247  21166849.576    21166853.217          50.000          44.0004
G22  22329649.115   117343156.157 7  91436257.97146  22329648.063    22329651.409          47.000          40.0004
G25  24613372.886   129344169.302 6 100787677.91444  24613372.505    24613379.561          41.000          26.0004
G31  20431056.234   107366017.208 9  83661873.81647  20431055.271    20431057.862          54.000          47.0004
G32  21974310.613   115475855.602 8  89981219.49547  21974310.704    21974315.993          50.000          43.0004
> 2017 10 22 00 22 30.0000000  0  9
G01  21589504.565   113453675.296 8  88405458.41047  21589504.278    21589510.743          51.000          43.0004
G03  23933484.912   125771320.938 7  98003653.12444  23933484.729    23933490.795          42.000          29.0004
G10  23087064.457   121323381.368 7  94537725.52545  23087063.803    23087070.153          45.000          34.0004
G11  22208732.953   116707712.189 7  90941103.35346  22208731.780    22208735.100          47.000          37.0004
G14  21174749.339   111274157.346 8  86707158.69347  21174748.448    21174752.080          51.000          44.0004
G22  22315891.710   117270851.675 8  91379916.84746  22315889.967    22315892.161          49.000          40.0004
G25  24609085.595   129321640.445 6 100770122.98644  24609085.477    24609092.770          40.000          26.0004
G31  20424868.221   107333505.351 9  83636539.91147  20424868.135    20424870.982          54.000          47.0004
G32  21986260.565   115538654.127 8  90030153.39947  21986260.776    21986266.410          50.000          43.0004
> 2017 10 22 00 23 00.0000000  0  9
G01  21583031.585   113419660.041 8  88378953.01047  21583031.409    21583038.169          51.000          43.0004
G03  23916652.019   125682865.798 6  97934727.05044  23916652.963    23916659.035          40.000          29.0004
G10  23101350.880   121398463.630 7  94596231.17345  23101350.823    23101357.556          45.000          33.0004
G11  22214237.373   116736642.760 8  90963646.65346  22214236.944    22214240.417          48.000          37.0004
G14  21182683.847   111315857.137 8  86739652.03847  21182683.562    21182687.160          50.000          44.0004
G22  22302153.767   117198663.916 8  91323666.64746  22302152.596    22302154.870          49.000          40.0004
G25  24604891.248   129299597.604 7 100752946.76944  24604890.984    24604897.909          42.000          25.0004
G31  20418795.433   107301597.175 9  83611676.43347  20418795.871    20418798.800          54.000          47.0004
G32  21998235.693   115601579.939 8  90079186.48947  21998235.188    21998240.803          50.000          43.0004
> 2017 10 22 00 23 30.0000000  0  9
G01  21576665.844   113386207.817 8  88352886.33847  21576665.780    21576671.905          48.000          43.0004
G03  23899822.952   125594414.930 7  97865804.42945  23899821.640    23899827.529          43.000          30.0004
G10  23115681.932   121473774.107 7  94654914.63545  23115682.336    23115688.840          44.000          33.0004
G11  22219848.562   116766123.722 8  90986618.82546  22219847.180    22219850.396          48.000          37.0004
G14  21190656.122   111357746.893 8  86772293.40147  21190655.133    21190658.610          51.000          44.0004
G22  22288439.050   117126593.858 8  91267508.19646  22288438.158    22288441.148          48.000          41.0004
G25  24600789.453   129278042.471 6 100736150.59644  24600788.743    24600796.286          39.000          25.0004
G31  20412839.690   107270293.839 9  83587284.24247  20412839.356    20412841.911          55.000          47.0004
G32  22010234.052   115664631.992 8  90128317.93747  22010233.709    22010239.152          51.000          43.0004
> 2017 10 22 00 24 00.0000000  0  9
G01  21570407.613   113353319.794 8  88327259.31647  21570407.349    21570413.984          51.000          43.0004
G03  23882988.496   125505969.309 6  97796885.80944  23882988.647    23882996.960          40.000          29.0004
G10  23130057.230   121549312.363 7  94713775.57545  23130056.775    23130063.337          43.000          33.0004
G11  22225562.293   116796153.337 7  91010018.52246  22225561.446    22225564.690          47.000          37.0004
G14  21198662.874   111399824.974 8  86805081.51947  21198662.270    21198665.705          49.000          44.0004
G22  22274747.992   117054643.472 8  91211442.95646  22274746.657    22274748.798          48.000          40.0004
G25  24596781.622   129256976.751 6 100719735.81244  24596779.053    24596789.271          41.000          25.0004
G31  20406998.563   107239596.418 9  83563364.18547  20406998.138    20407000.502          55.000          47.0004
G32  22022256.212   115727809.026 8  90177546.79447  22022255.930    22022261.324          50.000          42.0004
> 2017 10 22 00 24 30.0000000  0  9
G01  21564256.101   113320997.234 8  88302072.90747  21564256.456    21564262.904          49.000          43.0004
G03  23866160.270   125417530.230 6  97727972.27144  23866160.740    23866166.615          40.000          29.0004
G10  23144475.294   121625077.976 7  94772813.68145  23144474.348    23144480.603          45.000          33.0004
G11  22231380.032   116826729.845 7  91033844.36646  22231379.654    22231383.079          46.000          36.0004
G14  21206705.288   111442090.112 8  86838015.39047  21206704.907    21206708.521          49.000          44.0004
G22  22261078.213   116982813.626 8  91155471.69546  22261077.011    22261080.182          49.000          41.0004
G25  24592866.951   129236402.266 6 100703703.79044  24592864.563    24592873.177          41.000          25.0004
G31  20401272.014   107209505.243 8  83539916.53547  20401271.688    20401274.471          52.000          47.0004
G32  22034301.808   115791109.932 8  90226872.15647  22034301.568    22034307.041          51.000          42.0004
> 2017 10 22 00 25 00.0000000  0  9
G01  21558213.370   113289241.431 8  88277328.13947  21558213.351    21558220.202          49.000          43.0004
G03  23849333.524   125329098.711 7  97659064.68744  23849332.844    23849338.194          43.000          29.0004
G10  23158936.140   121701070.728 7  94832028.80145  23158935.027    23158941.993          43.000          33.0004
G11  22237302.056   116857851.364 7  91058094.88246  22237301.743    22237305.388          46.000          36.0004
G14  21214783.763   111484540.683 8  86871093.74847  21214782.992    21214786.512          51.000          44.0004
G22  22247434.061   116911106.384 8  91099595.93046  22247432.734    22247435.079          49.000          41.0004
G25  24589042.225   129216320.736 6 100688055.87643  24589040.783    24589052.010          39.000          23.0004
G31  20395660.516   107180021.279 9  83516942.04247  20395660.774    20395663.842          54.000          47.0004
G32  22046370.952   115854533.646 8  90276293.22247  22046370.793    22046376.265          51.000          42.0004
> 2017 10 22 00 25 30.0000000  0 10
G01  21552278.256   113258053.571 8  88253025.91047  21552278.418    21552285.274          50.000          43.0004
G03  23832503.697   125240675.887 6  97590163.85844  23832504.413    23832513.238          38.000          29.0004
G10  23173437.907   121777290.155 7  94891420.52745  23173439.204    23173446.083          43.000          33.0004
G11  22243327.302   116889515.644 8  91082768.33746  22243327.140    22243331.482          48.000          36.0004
G14  21222897.122   111527175.751 8  86904315.88147  21222896.317    21222899.719          49.000          44.0004
G22  22233810.897   116839522.796 8  91043816.53946  22233809.905    22233812.407          48.000          41.0004
G23  25551934.151   134276322.093 6 104630916.5964   25551933.790    25551942.451          39.000           1.0004
G25  24585312.496   129196733.799 6 100672793.29843  24585311.614    24585323.417          36.000          22.0004
G31  20390166.373   107151145.281 9  83494441.29247  20390166.073    20390168.778          54.000          47.0004
G32  22058463.466   115918078.974 8  90325809.05647  22058463.082    22058468.622          51.000          42.0004
> 2017 10 22 00 26 00.0000000  0 10
G01  21546450.970   113227434.797 8  88229167.14447  21546451.452    21546458.425          49.000          43.0004
G03  23815682.298   125152262.953 7  97521270.63145  23815681.823    23815688.261          42.000          30.0004
G10  23187988.043   121853735.942 7  94950988.63645  23187987.026    23187993.080          45.000          33.0004
G11  22249456.458   116921721.112 8  91107863.49046  22249456.113    22249460.441          48.000          37.0004
G14  21231044.798   111569993.918 8  86937680.68347  21231044.278    21231047.774          49.000          44.0004
G22  22220214.442   116768064.425 8  90988134.68246  22220213.019    22220214.628          49.000          41.0004
G23  25537571.001   134200832.835 6 104572093.96843  25537569.324    25537569.542          37.000          19.0004
G25  24581681.707   129177642.929 6 100657917.31143  24581679.710    24581687.807          39.000          20.0004
G31  20384788.073   107122878.214 9  83472415.01047  20384787.290    20384789.603          54.000          47.0004
G32  22070578.364   115981744.840 8  90375418.81347  22070578.278    22070583.700          49.000          42.0004
> 2017 10 22 00 26 30.0000000  0 10
G01  21540733.596   113197386.226 8  88205752.67547  21540733.783    21540740.462          50.000          43.0004
G03  23798859.556   125063860.916 7  97452385.98844  23798859.557    23798864.899          42.000          29.0004
G10  23202576.547   121930407.519 6  95010732.71345  23202576.347    23202583.403          41.000          33.0004
G11  22255687.948   116954465.732 7  91133378.76946  22255687.577    22255691.403          47.000          37.0004
G14  21239227.673   111612993.955 8  86971187.19447  21239226.910    21239230.417          51.000          43.0004
G22  22206638.239   116696732.724 7  90932551.57146  22206637.402    22206640.779          47.000          40.0004
G23  25523218.540   134125426.956 6 104513336.42343  25523218.730    25523225.195          38.000          22.0004
G25  24578146.196   129159049.746 7 100643429.14443  24578144.834    24578147.697          42.000          21.0004
G31  20379523.688   107095220.706 9  83450863.72047  20379524.051    20379526.485          54.000          47.0004
G32  22082716.641   116045530.014 8  90425121.53647  22082716.205    22082721.726          50.000          42.0004
> 2017 10 22 00 27 00.0000000  0 10
G01  21535124.080   113167909.121 8  88182783.51447  21535124.657    21535131.111          50.000          43.0004
G03  23782039.921   124975471.050 6  97383510.83745  23782039.593    23782046.404          40.000          31.0004
G10  23217208.655   122007304.747 7  95070652.58945  23217209.480    23217216.363          42.000          33.0004
G11  22262022.299   116987747.901 7  91159312.91046  22262021.008    22262024.565          47.000          37.0004
G14  21247444.896   111656174.754 8  87004834.56147  21247444.153    21247447.437          50.000          44.0004
G22  22193090.682   116625529.390 8  90877068.46946  22193089.117    22193090.588          48.000          41.0004
G23  25508886.347   134050104.641 6 104454644.00343  25508885.624    25508890.088          39.000          20.0004
G25  24574703.735   129140955.959 7 100629330.12943  24574702.284    24574703.747          42.000          22.0004
G31  20374376.844   107068173.395 9  83429787.91247  20374376.869    20374379.724          55.000          47.0004
G32  22094876.979   116109433.564 8  90474916.50147  22094876.702    22094882.126          51.000          42.0004
> 2017 10 22 00 27 30.0000000  0 10
G01  21529623.974   113139004.488 8  88160260.43347  21529624.397    21529630.847          50.000          43.0004
G03  23765220.782   124887094.503 6  97314645.99345  23765220.598    23765227.554          41.000          30.0004
G10  23231884.639   122084427.027 7  95130747.86445  23231885.524    23231892.598          43.000          33.0004
G11  22268456.329   117021565.298 7  91185664.12246  22268456.156    22268459.338          47.000          36.0004
G14  21255696.019   111699534.951 8  87038621.72647  21255695.393    21255698.639          50.000          44.0004
G22  22179563.781   116554455.970 8  90821686.60646  22179563.114    22179566.500          48.000          40.0004
G23  25494568.214   133974865.867 6 104396016.55342  25494567.375    25494571.961          38.000          17.0004
G25  24571356.073   129123363.038 7 100615621.42344  24571355.422    24571357.670          43.000          24.0004
G31  20369346.048   107041737.008 9  83409188.14947  20369346.195    20369349.095          54.000          47.0004
G32  22107059.528   116173454.284 8  90524802.77147  22107059.374    22107064.803          50.000          42.0004
> 2017 10 22 00 28 00.0000000  0 10
G01  21524232.743   113110673.433 8  88138184.29947  21524232.884    21524239.475          51.000          43.0004
G03  23748406.583   124798732.465 7  97245792.54145  23748407.307    23748414.641          42.000          30.0004
G10  23246604.652   122161774.007 7  95191018.21345  23246604.678    23246610.447          43.000          32.0004
G11  22274993.335   117055916.093 7  91212430.96446  22274992.588    22274995.494          45.000          36.0004
G14  21263981.524   111743073.006 8  87072547.47447  21263980.448    21263983.538          52.000          43.0004
G22  22166065.423   116483513.846 8  90766407.05246  22166064.278    22166066.610          49.000          41.0004
G23  25480263.944   133899710.620 6 104337454.42943  25480264.651    25480270.244          36.000          19.0004
G25  24568102.353   129106272.570 6 100602304.20444  24568101.476    24568108.103          41.000          24.0004
G31  20364432.537   107015912.250 9  83389064.97747  20364432.184    20364434.827          54.000          47.0004
G32  22119263.973   116237591.093 8  90574779.50047  22119264.006    22119269.624          50.000          42.0004
> 2017 10 22 00 28 30.0000000  0 10
G01  21518951.672   113082917.128 7  88116556.01947  21518951.159    21518957.758          44.000          42.0004
G03  23731596.508   124710386.146 6  97176951.28745  23731595.806    23731602.182          41.000          31.0004
G10  23261367.160   122239345.382 7  95251463.39745  23261366.241    23261372.546          42.000          32.0004
G11  22281630.538   117090798.354 7  91239611.96045  22281630.232    22281633.311          44.000          35.0004
G14  21272299.715   111786788.051 7  87106611.14947  21272298.961    21272302.399          46.000          42.0004
G22  22152590.269   116412704.780 7  90711231.16046  22152589.078    22152591.654          45.000          40.0004
G23  25465980.360   133824639.136 6 104278957.35743  25465979.516    25465983.764          37.000          21.0004
G25  24564945.485   129089686.163 6 100589379.77544  24564944.291    24564953.872          39.000          25.0004
G31  20359634.824   106990699.770 7  83369418.89447  20359634.444    20359636.972          46.000          44.0004
G32  22131490.806   116301843.022 7  90624845.93246  22131490.913    22131496.379          45.000          41.0004
> 2017 10 22 00 29 00.0000000  0 10
G01  21513779.585   113055736.601 8  88095376.39247  21513779.081    21513785.358          50.000          43.0004
G03  23714785.529   124622056.737 6  97108123.25445  23714786.004    23714792.738          41.000          30.0004
G10  23276170.251   122317140.636 7  95312083.07345  23276169.591    23276176.476          43.000          32.0004
G11  22288368.345   117126210.053 7  91267205.48146  22288368.436    22288372.271          46.000          36.0004
G14  21280651.214   111830678.584 8  87140811.55447  21280650.922    21280654.620          49.000          44.0004
G22  22139141.887   116342030.202 8  90656160.07646  22139140.665    22139143.316          49.000          41.0004
G23  25451712.390   133749651.024 6 104220525.45943  25451710.939    25451714.609          40.000          22.0004
G25  24561883.069   129073605.325 6 100576849.25744  24561883.357    24561893.741          39.000          25.0004
G31  20354952.817   106966100.173 8  83350250.38548  20354953.167    20354955.683          53.000          48.0004
G32  22143739.184   116366208.934 8  90675001.18946  22143739.350    22143745.066          50.000          41.0004
> 2017 10 22 00 29 30.0000000  0 10
G01  21508716.953   113029132.815 8  88074646.17747  21508716.610    21508723.208          50.000          44.0004
G03  23697981.146   124533745.438 7  97039309.30045  23697980.619    23697988.554          42.000          30.0004
G10  23291016.810   122395159.366 7  95372876.85345  23291016.662    23291022.524          44.000          32.0004
G11  22295209.333   117162149.303 8  91295210.06746  22295208.273    22295212.089          48.000          37.0004
G14  21289036.773   111874743.546 8  87175147.88247  21289036.171    21289039.699          49.000          44.0004
G22  22125717.652   116271491.534 8  90601194.89446  22125716.854    22125719.565          48.000          41.0004
G23  25437455.411   133674746.459 6 104162158.49342  25437455.173    25437458.923          37.000          17.0004
G25  24558921.885   129058031.508 6 100564713.80444  24558920.583    24558930.203          41.000          26.0004
G31  20350388.438   106942114.121 8  83331559.97247  20350388.659    20350391.287          53.000          47.0004
G32  22156009.365   116430687.759 8  90725244.41647  22156009.324    22156014.910          49.000          42.0004
> 2017 10 22 00 30 00.0000000  0 10
G01  21503763.387   113003106.790 8  88054366.16747  21503763.665    21503770.371          49.000          44.0004
G03  23681179.564   124445453.446 6  96970510.43145  23681179.771    23681185.577          41.000          30.0004
G10  23305905.066   122473401.114 7  95433844.43845  23305905.441    23305911.807          43.000          32.0004
G11  22302148.158   117198613.843 7  91323623.99846  22302147.566    22302151.377          47.000          37.0004
G14  21297455.296   111918981.597 8  87209619.08547  21297454.507    21297458.064          50.000          43.0004
G22  22112322.456   116201090.583 8  90546337.02846  22112320.883    22112322.786          50.000          40.0004
G23  25423216.099   133599925.803 6 104103856.95043  25423217.276    25423222.354          37.000          23.0004
G25  24556054.000   129042966.128 6 100552974.57744  24556053.505    24556062.433          39.000          25.0004
G31  20345941.206   106918742.215 9  83313348.10148  20345941.211    20345943.827          54.000          48.0004
G32  22168300.369   116495278.449 8  90775574.81647  22168300.559    22168305.979          49.000          42.0004
> 2017 10 22 00 30 30.0000000  0 10
G01  21498919.606   112977659.490 8  88034537.11247  21498920.750    21498927.734          49.000          43.0004
G03  23664380.994   124357181.944 6  96901727.53445  23664381.861    23664389.400          41.000          31.0004
G10  23320836.646   122551865.437 7  95494985.42645  23320835.903    23320841.898          44.000          31.0004
G11  22309185.980   117235601.638 8  91352445.64646  22309186.310    22309189.672          48.000          37.0004
G14  21305906.288   111963391.419 8  87244224.14047  21305905.404    21305908.987          50.000          43.0004
G22  22098951.502   116130828.803 8  90491587.59546  22098949.960    22098952.565          49.000          40.0004
G23  25408996.266   133525188.821 6 104045620.58443  25408995.837    25409000.044          37.000          18.0004
G25  24553284.463   129028410.636 6 100541632.66244  24553284.346    24553292.886          41.000          26.0004
G31  20341610.427   106895984.765 9  83295615.04248  20341610.574    20341613.294          54.000          48.0004
G32  22180612.190   116559979.951 8  90825991.55847  22180612.723    22180618.532          50.000          42.0004
> 2017 10 22 00 31 00.0000000  0 10
G01  21494186.651   112952791.960 7  88015159.81447  21494188.396    21494195.752          47.000          43.0004
G03  23647588.413   124268932.219 6  96832961.59145  23647588.524    23647595.629          40.000          31.0004
G10  23335808.370   122630551.888 6  95556299.54945  23335809.571    23335817.232          41.000          32.0004
G11  22316325.922   117273110.806 8  91381673.57346  22316324.069    22316327.219          48.000          36.0004
G14  21314389.657   112007971.955 8  87278962.22247  21314388.814    21314392.365          51.000          43.0004
G22  22085608.880   116060707.938 8  90436947.97046  22085607.074    22085608.523          50.000          41.0004
G23  25394792.175   133450535.886 6 103987449.61843  25394790.126    25394793.772          39.000          22.0004
G25  24550613.071   129014366.465 7 100530689.19744  24550612.992    24550618.803          42.000          25.0004
G31  20337397.549   106873842.616 8  83278361.42948  20337397.022    20337399.815          53.000          48.0004
G32  22192946.327   116624791.276 8  90876493.87746  22192946.058    22192951.678          50.000          41.0004
> 2017 10 22 00 31 30.0000000  0 10
G01  21489566.039   112928505.075 8  87996234.94947  21489567.145    21489574.110          49.000          43.0004
G03  23630798.825   124180705.477 6  96764213.54845  23630799.020    23630805.623          40.000          30.0004
G10  23350827.311   122709460.010 7  95617786.34745  23350826.115    23350831.395          44.000          32.0004
G11  22323559.542   117311138.891 8  91411305.84246  22323559.749    22323563.456          48.000          36.0004
G14  21322905.415   112052722.004 8  87313832.38847  21322904.521    21322908.108          51.000          44.0004
G22  22072291.245   115990728.990 8  90382418.92546  22072289.970    22072292.634          50.000          41.0004
G23  25380600.822   133375966.456 6 103929343.76543  25380600.381    25380603.023          41.000          21.0004
G25  24548039.608   129000835.003 6 100520145.28744  24548038.183    24548043.609          39.000          25.0004
G31  20333301.078   106852315.892 9  83261587.36647  20333300.686    20333303.403          55.000          47.0004
G32  22205299.855   116689711.327 8  90927080.92247  22205299.927    22205305.559          49.000          42.0004
> 2017 10 22 00 32 00.0000000  0 10
G01  21485057.732   112904799.779 8  87977763.27247  21485056.879    21485063.241          51.000          44.0004
G03  23614015.697   124092503.049 7  96695484.45745  23614015.506    23614022.343          42.000          31.0004
G10  23365883.874   122788589.406 7  95679445.59545  23365883.681    23365890.577          43.000          32.0004
G11  22330895.213   117349683.904 7  91441340.88946  22330894.534    22330898.353          46.000          36.0004
G14  21331453.009   112097640.216 8  87348833.59447  21331452.182    21331455.650          48.000          43.0004
G22  22059002.008   115920893.969 8  90328002.04146  22059000.934    22059002.957          50.000          41.0004
G23  25366425.053   133301480.890 6 103871303.23143  25366424.740    25366428.258          37.000          20.0004
G25  24545559.936   128987817.695 6 100510002.02244  24545559.480    24545567.719          39.000          24.0004
G31  20329321.888   106831405.250 9  83245293.37048  20329321.490    20329324.111          54.000          48.0004
G32  22217674.454   116754739.192 8  90977751.96946  22217674.283    22217679.681          48.000          41.0004
> 2017 10 22 00 32 30.0000000  0 11
G01  21480658.164   112881676.835 8  87959745.39047  21480656.816    21480663.103          52.000          43.0004
G03  23597235.939   124004326.021 7  96626775.15445  23597235.884    23597242.038          42.000          31.0004
G10  23380983.142   122867939.454 7  95741276.77245  23380983.422    23380989.367          43.000          31.0004
G11  22338328.111   117388743.709 7  91471777.09946  22338327.784    22338331.227          47.000          36.0004
G14  21340032.338   112142725.497 8  87383964.98647  21340031.523    21340035.055          50.000          43.0004
G22  22045741.222   115851204.332 8  90273698.41446  22045739.730    22045741.137          50.000          41.0004
G23  25352267.292   133227079.102 6 103813327.90343  25352265.733    25352269.491          39.000          18.0004
G25  24543180.048   128975315.778 6 100500260.31044  24543179.142    24543190.125          38.000          24.0004
G26  25266593.585   132776872.208 5 103462498.7354   25266595.376    25266601.201          32.000           1.0004
G31  20325459.504   106811110.858 9  83229479.57147  20325459.509    20325462.210          55.000          47.0004
G32  22230069.091   116819873.673 8  91028506.10346  22230068.913    22230074.395          50.000          41.0004
> 2017 10 22 00 33 00.0000000  0 11
G01  21476367.827   112859137.205 8  87942182.04747  21476367.322    21476374.086          50.000          43.0004
G03  23580461.963   123916175.831 6  96558086.73445  23580461.516    23580468.644          41.000          32.0004
G10  23396125.361   122947509.761 7  95803279.58945  23396125.137    23396131.766          44.000          32.0004
G11  22345858.457   117428316.042 7  91502612.67046  22345858.220    22345861.743          46.000          36.0004
G14  21348643.269   112187976.561 8  87419225.55547  21348642.604    21348646.014          52.000          43.0004
G22  22032506.583   115781662.027 8  90219509.62146  22032505.876    22032507.977          49.000          41.0004
G23  25338126.224   133152761.277 6 103755418.03744  25338125.383    25338130.180          39.000          24.0004
G25  24540898.331   128963330.704 6 100490921.31844  24540897.017    24540910.218          38.000          24.0004
G26  25250240.546   132690921.560 6 103395524.09843  25250240.647    25250249.266          36.000          19.0004
G31  20321714.971   106791433.440 9  83214146.53448  20321714.978    20321717.736          55.000          48.0004
G32  22242483.756   116885113.899 8  91079342.63746  22242483.698    22242489.434          49.000          41.0004
> 2017 10 22 00 33 30.0000000  0 11
G01  21472188.422   112837181.580 8  87925073.77347  21472188.894    21472195.601          49.000          44.0004
G03  23563691.243   123828053.509 6  96489420.06645  23563691.770    23563697.875          41.000          32.0004
G10  23411308.437   123027299.736 7  95865453.56345  23411308.793    23411315.177          42.000          32.0004
G11  22353486.947   117468398.771 8  91533845.95646  22353485.969    22353489.364          48.000          36.0004
G14  21357285.951   112233392.089 8  87454614.27547  21357284.953    21357288.221          50.000          43.0004
G22  22019302.435   115712268.306 8  90165436.60246  22019301.043    22019302.630          50.000          41.0004
G23  25323999.368   133078527.067 6 103697573.33743  25323997.717    25324001.438          38.000          18.0004
G25  24538720.374   128951863.614 6 100481985.92944  24538718.077    24538727.865          41.000          27.0004
G26  25233859.588   132604832.013 6 103328441.23743  25233858.088    25233867.037          37.000          21.0004
G31  20318088.461   106772373.249 9  83199294.45247  20318087.971    20318090.675          55.000          47.0004
G32  22254918.571   116950458.733 8  91130260.68146  22254918.568    22254923.803          50.000          41.0004
> 2017 10 22 00 34 00.0000000  0 11
G01  21468122.446   112815810.937 8  87908421.32747  21468122.268    21468128.888          49.000          43.0004
G03  23546928.340   123739960.533 6  96420776.22245  23546928.241    23546935.642          41.000          32.0004
G10  23426534.310   123107308.977 7  95927798.40345  23426533.881    23426540.807          43.000          31.0004
G11  22361209.805   117508989.578 7  91565475.14446  22361209.450    22361213.549          46.000          36.0004
G14  21365959.131   112278970.839 8  87490130.18547  21365958.333    21365961.590          50.000          43.0004
G22  22006125.030   115643024.783 8  90111480.61746  22006123.784    22006126.302          49.000          41.0004
G23  25309886.895   133004376.941 6 103639793.99443  25309886.704    25309892.596          38.000          22.0004
G25  24536638.243   128940915.864 6 100473455.24544  24536636.511    24536644.326          41.000          29.0004
G26  25217449.538   132518606.214 6 103261252.24743  25217449.305    25217458.182          36.000          21.0004
G31  20314579.161   106753930.462 9  83184923.45448  20314578.467    20314581.213          55.000          48.0004
G32  22267372.800   117015907.287 8  91181259.56446  22267372.915    22267378.241          49.000          41.0004
> 2017 10 22 00 34 30.0000000  0 11
G01  21464168.309   112795026.085 8  87892225.31947  21464167.426    21464174.063          49.000          44.0004
G03  23530170.917   123651898.224 7  96352156.28645  23530171.166    23530177.139          43.000          32.0004
G10  23441801.183   123187537.013 7  95990313.73645  23441800.658    23441807.129          42.000          31.0004
G11  22369031.255   117550086.698 7  91597498.83546  22369030.335    22369033.846          46.000          36.0004
G14  21374663.535   112324711.686 8  87525772.40347  21374662.543    21374665.788          50.000          43.0004
G22  21992977.440   115573933.177 8  90057643.01446  21992976.397    21992978.703          49.000          41.0004
G23  25295794.342   132930310.563 6 103582080.06343  25295792.036    25295796.115          39.000          20.0004
G25  24534655.306   128930488.722 7 100465330.22444  24534653.494    24534658.338          47.000          29.0004
G26  25201015.225   132432246.799 5 103193959.13643  25201016.894    25201025.944          33.000          18.0004
G31  20311186.744   106736105.240 9  83171033.68547  20311186.405    20311189.174          54.000          47.0004
G32  22279847.043   117081458.610 8  91232338.50446  22279847.100    22279852.463          49.000          41.0004
> 2017 10 22 00 35 00.0000000  0 11
G01  21460324.257   112774827.715 8  87876486.32647  21460323.904    21460330.041          50.000          43.0004
G03  23513418.770   123563867.847 7  96283561.19745  23513418.719    23513425.949          42.000          32.0004
G10  23457109.166   123267983.343 7  96052999.15945  23457109.166    23457115.806          43.000          31.0004
G11  22376947.696   117591687.467 8  91629915.01146  22376946.751    22376949.908          48.000          36.0004
G14  21383398.230   112370613.923 8  87561540.37847  21383397.334    21383400.662          50.000          43.0004
G22  21979859.639   115504995.124 8  90003925.07047  21979858.256    21979859.941          50.000          42.0004
G23  25281712.055   132856328.168 6 103524431.38743  25281712.972    25281716.952          36.000          19.0004
G25  24532768.477   128920583.391 7 100457611.78244  24532767.604    24532771.370          45.000          26.0004
G26  25184556.710   132345756.373 5 103126563.99342  25184558.457    25184567.118          34.000          16.0004
G31  20307912.282   106718898.428 9  83157625.79548  20307912.034    20307914.777          54.000          48.0004
G32  22292339.922   117147111.705 8  91283496.76946  22292340.259    22292345.672          49.000          41.0004
> 2017 10 22 00 35 30.0000000  0 11
G01  21456591.877   112755216.615 8  87861204.96847  21456591.701    21456598.056          49.000          43.0004
G03  23496674.890   123475870.734 7  96214992.05745  23496674.644    23496680.815          43.000          33.0004
G10  23472459.291   123348647.398 7  96115854.24845  23472459.366    23472465.787          43.000          31.0004
G11  22384959.353   117633789.760 7  91662721.96446  22384958.695    22384962.022          47.000          36.0004
G14  21392163.298   112416675.871 8  87597432.79747  21392162.574    21392166.065          50.000          43.0004
G22  21966771.068   115436212.347 8  89950328.11247  21966769.686    21966771.215          51.000          42.0004
G23  25267654.255   132782429.695 6 103466848.31743  25267652.964    25267657.208          40.000          22.0004
G25  24530984.365   128911201.221 7 100450301.00643  24530982.203    24530982.831          45.000          23.0004
G26  25168075.137   132259137.484 6 103059068.79643  25168075.229    25168083.456          36.000          18.0004
G31  20304755.435   106702309.902 9  83144699.68248  20304755.268    20304758.015          54.000          48.0004
G32  22304852.829   117212865.607 8  91334733.57546  22304853.010    22304858.324          49.000          41.0004
> 2017 10 22 00 36 00.0000000  0 11
G01  21452971.579   112736193.506 8  87846381.76947  21452971.730    21452978.574          49.000          43.0004
G03  23479934.113   123387908.200 6  96146449.81945  23479934.783    23479941.380          41.000          31.0004
G10  23487850.888   123429528.656 7  96178878.59045  23487850.444    23487857.186          44.000          31.0004
G11  22393067.104   117676390.912 8  91695917.65046  22393065.623    22393069.257          48.000          36.0004
G14  21400958.626   112462896.395 8  87633448.78547  21400958.024    21400961.613          49.000          43.0004
G22  21953710.826   115367586.274 8  89896853.27046  21953709.751    21953711.868          50.000          41.0004
G23  25253607.737   132708615.122 6 103409330.46543  25253605.097    25253607.915          38.000          20.0004
G25  24529298.161   128902343.335 7 100443398.78543  24529297.191    24529295.396          46.000          23.0004
G26  25151566.962   132172392.723 5 102991475.52143  25151567.576    25151576.886          34.000          20.0004
G31  20301716.163   106686340.090 9  83132255.69348  20301716.263    20301719.010          55.000          48.0004
G32  22317384.014   117278719.354 8  91386048.18346  22317384.449    22317389.889          48.000          41.0004
> 2017 10 22 00 36 30.0000000  0 11
G01  21449463.730   112717758.958 8  87832017.18647  21449463.771    21449470.351          50.000          44.0004
G03  23463203.462   123299981.547 7  96077935.54845  23463203.839    23463209.921          43.000          33.0004
G10  23503281.344   123510626.517 6  96242071.71145  23503282.631    23503289.519          41.000          31.0004
G11  22401266.579   117719488.985 7  91729500.53146  22401266.349    22401270.528          46.000          36.0004
G14  21409783.953   112509274.346 8  87669587.44147  21409783.404    21409786.834          50.000          42.0004
G22  21940681.604   115299118.419 8  89843501.68347  21940680.565    21940682.946          49.000          42.0004
G23  25239574.454   132634884.452 6 103351878.10243  25239574.570    25239579.577          38.000          23.0004
G25  24527712.075   128894010.735 7 100436905.90943  24527710.164    24527711.252          45.000          22.0004
G26  25135037.914   132085524.526 5 102923786.11643  25135037.396    25135045.244          35.000          19.0004
G31  20298795.149   106670988.843 9  83120293.69348  20298795.042    20298797.730          54.000          48.0004
G32  22329934.531   117344671.909 8  91437439.79146  22329934.788    22329940.120          49.000          41.0004
> 2017 10 22 00 37 00.0000000  0 11
G01  21446068.711   112699913.719 8  87818111.80647  21446068.104    21446074.458          48.000          43.0004
G03  23446478.887   123212092.049 7  96009450.23245  23446478.643    23446485.284          43.000          33.0004
G10  23518757.402   123591940.500 7  96305433.22045  23518756.545    23518762.312          44.000          30.0004
G11  22409562.012   117763081.853 7  91763468.97246  22409561.788    22409565.883          45.000          36.0004
G14  21418639.543   112555808.650 8  87705847.92147  21418638.696    21418642.249          49.000          43.0004
G22  21927684.708   115230810.985 8  89790275.11847  21927683.002    21927684.743          50.000          42.0004
G23  25225561.370   132561237.450 6 103294490.76043  25225561.480    25225564.848          40.000          19.0004
G25  24526222.949   128886204.646 6 100430823.24843  24526222.495    24526226.865          38.000          22.0004
G26  25118484.432   131998535.468 6 102856002.51643  25118483.387    25118493.101          36.000          19.0004
G31  20295991.676   106656256.486 8  83108813.94548  20295991.583    20295994.238          52.000          48.0004
G32  22342503.603   117410722.343 8  91488907.66446  22342503.807    22342509.315          48.000          40.0004
> 2017 10 22 00 37 30.0000000  0 11
G01  21442785.376   112682658.418 8  87804666.11647  21442784.688    21442790.937          51.000          44.0004
G03  23429760.526   123124241.210 6  95940995.03345  23429760.717    23429767.687          41.000          32.0004
G10  23534270.514   123673470.042 7  96368962.74445  23534271.058    23534278.310          42.000          31.0004
G11  22417952.354   117807167.003 7  91797821.01746  22417950.782    22417954.842          47.000          36.0004
G14  21427524.736   112602498.206 8  87742229.38847  21427523.563    21427526.963          50.000          43.0004
G22  21914716.962   115162665.197 8  89737174.53047  21914715.799    21914716.143          51.000          42.0004
G23  25211561.745   132487674.349 6 103237168.99343  25211561.500    25211566.222          38.000          21.0004
G25  24524838.916   128878926.294 6 100425151.78543  24524838.409    24524842.513          41.000          23.0004
G26  25101908.640   131911428.217 6 102788126.82043  25101908.141    25101916.981          36.000          20.0004
G31  20293305.833   106642143.332 9  83097816.69448  20293305.939    20293308.600          54.000          48.0004
G32  22355090.835   117476869.782 7  91540451.12346  22355091.115    22355096.553          47.000          41.0004
> 2017 10 22 00 38 00.0000000  0 11
G01  21439613.343   112665993.761 8  87791680.68147  21439613.317    21439620.079          50.000          43.0004
G03  23413051.357   123036430.450 7  95872571.03645  23413051.835    23413057.350          42.000          33.0004
G10  23549827.433   123755214.685 7  96432659.83345  23549826.402    23549832.689          42.000          30.0004
G11  22426433.426   117851742.191 7  91832554.89345  22426433.219    22426437.255          47.000          35.0004
G14  21436438.273   112649342.028 8  87778731.06347  21436437.491    21436440.980          49.000          43.0004
G22  21901777.614   115094683.194 7  89684201.53147  21901777.063    21901780.220          47.000          42.0004
G23  25197579.564   132414195.432 6 103179912.72443  25197579.379    25197581.760          40.000          21.0004
G25  24523555.297   128872176.758 7 100419892.43643  24523554.756    24523557.542          43.000          22.0004
G26  25085310.179   131824205.454 5 102720161.06843  25085309.355    25085318.310          35.000          19.0004
G31  20290738.315   106628649.371 8  83087301.93448  20290738.151    20290740.749          53.000          48.0004
G32  22367696.900   117543113.349 8  91592069.48746  22367696.994    22367702.341          48.000          41.0004
> 2017 10 22 00 38 30.0000000  0 11
G01  21436555.646   112649920.162 8  87779155.79847  21436554.616    21436561.219          52.000          44.0004
G03  23396348.584   122948660.885 7  95804179.21145  23396348.928    23396356.394          42.000          33.0004
G10  23565423.383   123837173.661 7  96496523.95945  23565422.640    23565429.453          42.000          30.0004
G11  22435009.973   117896804.477 7  91867668.32645  22435008.704    22435012.445          46.000          35.0004
G14  21445381.362   112696338.640 8  87815351.78547  21445380.604    21445384.259          48.000          43.0004
G22  21888874.795   115026866.040 8  89631357.02547  21888873.087    21888875.688          49.000          43.0004
G23  25183613.299   132340800.241 6 103122721.70343  25183613.449    25183616.260          40.000          22.0004
G25  24522371.940   128865956.904 7 100415045.87443  24522371.204    24522373.691          43.000          22.0004
G26  25068692.693   131736869.614 6 102652107.24543  25068690.626    25068699.130          37.000          21.0004
G31  20288288.316   106615774.747 9  83077269.76747  20288288.149    20288290.800          55.000          47.0004
G32  22380320.023   117609451.936 8  91643761.89646  22380320.627    22380326.376          48.000          41.0004
> 2017 10 22 00 39 00.0000000  0 11
G01  21433607.453   112634438.487 7  87767092.16247  21433608.372    21433615.037          47.000          44.0004
G03  23379655.508   122860934.330 7  95735820.86745  23379655.007    23379661.202          43.000          32.0004
G10  23581058.814   123919346.674 6  96560554.87345  23581059.888    23581066.332          41.000          30.0004
G11  22443676.921   117942352.048 7  91903159.91846  22443676.372    22443680.050          46.000          36.0004
G14  21454353.642   112743487.281 8  87852090.97947  21454352.634    21454356.291          49.000          43.0004
G22  21876002.171   114959215.785 8  89578642.53947  21876000.677    21876001.668          51.000          43.0004
G23  25169662.490   132267488.922 6 103065596.16643  25169661.831    25169666.395          39.000          21.0004
G25  24521289.594   128860268.197 7 100410613.11644  24521289.218    24521295.290          42.000          26.0004
G26  25052048.590   131649423.663 5 102583967.57243  25052048.387    25052057.091          34.000          18.0004
G31  20285956.492   106603519.578 9  83067720.29548  20285956.084    20285958.740          55.000          48.0004
G32  22392961.985   117675884.951 8  91695527.87046  22392962.482    22392967.956          49.000          40.0004
> 2017 10 22 00 39 30.0000000  0 11
G01  21430775.911   112619549.005 8  87755489.97447  21430775.049    21430781.597          50.000          43.0004
G03  23362969.696   122773251.767 7  95667496.82945  23362969.824    23362976.968          42.000          33.0004
G10  23596738.179   124001732.942 7  96624751.94545  23596737.399    23596744.498          42.000          30.0004
G11  22452435.765   117988382.222 7  91939027.55845  22452435.655    22452439.288          45.000          35.0004
G14  21463354.126   112790786.516 8  87888947.51447  21463353.365    21463357.054          48.000          43.0004
G22  21863159.233   114891733.803 8  89526059.19747  21863158.146    21863160.304          50.000          42.0004
G23  25155727.308   132194261.456 6 103008535.80044  25155727.011    25155732.213          38.000          24.0004
G25  24520309.527   128855111.249 7 100406594.73344  24520308.833    24520314.246          46.000          28.0004
G26  25035391.293   131561869.993 6 102515743.89343  25035389.350    25035397.869          38.000          21.0004
G31  20283741.786   106591883.581 9  83058653.29648  20283741.840    20283744.480          56.000          48.0004
G32  22405622.274   117742411.151 8  91747366.46546  22405621.981    22405627.485          49.000          40.0004
> 2017 10 22 00 40 00.0000000  0 11
G01  21428054.933   112605252.413 8  87744349.74647  21428054.604    21428061.065          50.000          44.0004
G03  23346293.190   122685614.813 7  95599208.34145  23346292.801    23346298.729          45.000          33.0004
G10  23612454.399   124084331.970 7  96689114.80444  23612455.429    23612461.460          42.000          29.0004
G11  22461286.856   118034892.717 7  91975269.45846  22461286.257    22461289.661          45.000          36.0004
G14  21472383.511   112838235.340 8  87925920.61947  21472382.743    21472386.330          49.000          42.0004
G22  21850350.102   114824421.967 8  89473608.42646  21850348.766    21850350.999          49.000          41.0004
G23  25141806.482   132121117.450 6 102951540.53443  25141805.996    25141812.095          36.000          20.0004
G25  24519428.374   128850487.230 7 100402991.62444  24519427.777    24519434.837          43.000          28.0004
G26  25018706.828   131474211.368 5 102447438.54443  25018704.817    25018716.533          32.000          18.0004
G31  20281645.688   106580867.062 9  83050069.00348  20281645.420    20281648.130          55.000          48.0004
G32  22418298.898   117809029.871 8  91799277.14346  22418298.952    22418304.704          49.000          40.0004
> 2017 10 22 00 40 30.0000000  0 11
G01  21425446.161   112591548.984 8  87733671.77447  21425446.619    21425453.265          50.000          43.0004
G03  23329624.998   122598024.810 7  95530956.41645  23329625.583    23329632.459          43.000          34.0004
G10  23628213.985   124167143.102 7  96753642.95345  23628213.582    23628221.719          42.000          30.0004
G11  22470228.861   118081881.042 7  92011883.71645  22470227.877    22470231.177          44.000          35.0004
G14  21481440.964   112885832.385 8  87963009.22047  21481440.145    21481443.691          49.000          42.0004
G22  21837574.632   114757282.044 8  89421291.60947  21837573.152    21837574.928          51.000          43.0004
G23  25127905.991   132048057.179 6 102894610.49043  25127905.394    25127908.720          41.000          21.0004
G25  24518650.563   128846397.088 7 100399804.53944  24518650.509    24518656.161          46.000          28.0004
G26  25002009.450   131386450.544 6 102379053.41243  25002009.133    25002016.493          39.000          23.0004
G31  20279667.078   106570470.215 9  83041967.57247  20279666.980    20279669.620          54.000          47.0004
G32  22430993.270   117875740.066 7  91851259.10846  22430993.536    22430999.248          47.000          40.0004
> 2017 10 22 00 41 00.0000000  0 11
G01  21422952.514   112578439.377 8  87723456.48347  21422952.141    21422958.485          50.000          43.0004
G03  23312965.704   122510483.079 7  95462742.15545  23312966.110    23312972.864          43.000          32.0004
G10  23644011.903   124250165.688 7  96818335.87244  23644012.699    23644018.401          42.000          29.0004
G11  22479260.635   118129344.728 7  92048868.38045  22479259.954    22479263.196          46.000          35.0004
G14  21490526.157   112933576.720 8  88000212.59247  21490525.504    21490529.136          49.000          42.0004
G22  21824831.607   114690315.571 8  89369109.96347  21824830.226    21824832.094          51.000          43.0004
G23  25114020.488   131975080.579 6 102837745.65544  25114019.839    25114022.029          39.000          24.0004
G25  24517973.550   128842841.750 7 100397034.15944  24517972.676    24517979.893          43.000          28.0004
G26  24985290.381   131298589.930 6 102310590.84543  24985288.434    24985296.887          38.000          19.0004
G31  20277806.359   106560692.574 9  83034348.64048  20277806.312    20277808.968          55.000          48.0004
G32  22443705.431   117942540.918 7  91903311.71246  22443705.350    22443711.237          47.000          40.0004
> 2017 10 22 00 41 30.0000000  0 11
G01  21420569.303   112565924.030 7  87713704.27747  21420570.495    21420576.841          46.000          44.0004
G03  23296316.128   122422991.349 6  95394566.83245  23296316.993    23296323.449          41.000          33.0004
G10  23659852.308   124333399.398 6  96883193.27745  23659850.766    23659858.829          41.000          30.0004
G11  22488382.172   118177281.410 7  92086221.61646  22488381.906    22488385.482          45.000          36.0004
G14  21499639.470   112981467.629 8  88037530.18047  21499638.905    21499642.572          49.000          42.0004
G22  21812120.667   114623524.355 8  89317064.87647  21812119.314    21812121.980          48.000          43.0004
G23  25100150.195   131902187.631 6 102780946.04943  25100149.306    25100148.426          40.000          21.0004
G25  24517396.437   128839822.321 7 100394681.38644  24517396.849    24517403.765          42.000          25.0004
G26  24968547.692   131210632.794 5 102242052.72643  24968548.778    24968561.305          33.000          20.0004
G31  20276064.019   106551534.288 9  83027212.32148  20276063.586    20276066.126          56.000          48.0004
G32  22456434.559   118009431.690 8  91955434.38446  22456434.200    22456439.874          48.000          40.0004
> 2017 10 22 00 42 00.0000000  0 11
G01  21418303.324   112554003.301 8  87704415.40947  21418301.976    21418308.541          52.000          43.0004
G03  23279678.685   122335550.779 7  95326431.37745  23279677.939    23279684.231          45.000          33.0004
G10  23675730.237   124416843.299 6  96948214.52144  23675730.452    23675736.544          41.000          29.0004
G11  22497595.730   118225688.393 7  92123941.31445  22497593.784    22497597.393          46.000          35.0004
G14  21508780.991   113029503.743 8  88074960.91647  21508779.928    21508783.462          48.000          43.0004
G22  21799444.116   114556910.123 8  89265157.67447  21799443.090    21799445.136          50.000          42.0004
G23  25086293.001   131829378.193 6 102724211.43343  25086292.506    25086295.453          39.000          23.0004
G25  24516926.608   128837339.523 7 100392746.75644  24516925.585    24516931.178          43.000          26.0004
G26  24951795.355   131122581.305 6 102173441.35643  24951795.347    24951804.161          37.000          21.0004
G31  20274438.830   106542994.851 8  83020558.22148  20274438.570    20274441.175          53.000          48.0004
G32  22469179.587   118076411.306 8  92007626.28846  22469179.968    22469185.553          48.000          40.0004
> 2017 10 22 00 42 30.0000000  0 11
G01  21416146.642   112542677.544 8  87695590.12847  21416146.881    21416153.693          50.000          43.0004
G03  23263048.812   122248162.856 7  95258336.94345  23263048.585    23263054.656          42.000          33.0004
G10  23691650.156   124500496.886 7  97013399.09544  23691649.185    23691655.143          43.000          29.0004
G11  22506894.706   118274563.235 7  92162025.58145  22506894.199    22506897.983          45.000          35.0004
G14  21517949.408   113077683.908 8  88112503.90047  21517948.381    21517951.755          49.000          42.0004
G22  21786801.973   114490474.568 8  89213389.72647  21786800.984    21786803.160          51.000          42.0004
G23  25072452.277   131756652.188 6 102667541.89043  25072450.889    25072456.785          39.000          21.0004
G25  24516555.375   128835394.189 7 100391230.93644  24516555.266    24516561.924          42.000          27.0004
G26  24935021.692   131034438.194 6 102104758.48143  24935021.711    24935031.368          36.000          18.0004
G31  20272931.912   106535074.341 9  83014386.40148  20272931.321    20272933.964          55.000          48.0004
G32  22481942.931   118143478.959 8  92059886.79646  22481942.768    22481948.205          49.000          39.0004
> 2017 10 22 00 43 00.0000000  0 11
G01  21414105.410   112531947.154 8  87687228.79247  21414105.089    21414111.846          50.000          44.0004
G03  23246429.019   122160829.083 7  95190284.72545  23246429.144    23246435.344          43.000          33.0004
G10  23707606.116   124584359.574 6  97078746.62044  23707606.783    23707614.835          40.000          29.0004
G11  22516284.110   118323903.709 7  92200472.67945  22516283.357    22516286.924          45.000          35.0004
G14  21527144.996   113126006.877 8  88150158.16247  21527143.986    21527147.332          50.000          42.0004
G22  21774194.456   114424219.472 8  89161762.39847  21774193.146    21774195.115          51.000          43.0004
G23  25058629.098   131684009.737 6 102610937.39543  25058628.251    25058633.867          39.000          22.0004
G25  24516285.542   128833987.308 6 100390134.68944  24516285.310    24516293.645          40.000          25.0004
G26  24918233.322   130946206.397 5 102036006.59943  24918231.343    24918240.514          35.000          21.0004
G31  20271541.881   106527772.871 9  83008696.94948  20271541.983    20271544.552          56.000          48.0004
G32  22494721.754   118210633.840 8  92112215.27646  22494721.955    22494727.306          48.000          40.0004
> 2017 10 22 00 43 30.0000000  0 11
G01  21412177.613   112521812.542 8  87679331.67247  21412176.794    21412182.946          50.000          44.0004
G03  23229820.903   122073550.957 7  95122275.83545  23229820.798    23229827.579          43.000          34.0004
G10  23723603.866   124668430.614 6  97144256.51344  23723604.884    23723611.117          39.000          28.0004
G11  22525762.287   118373706.789 7  92239280.25145  22525760.555    22525764.060          47.000          35.0004
G14  21536367.367   113174472.050 8  88187923.23947  21536366.626    21536369.889          50.000          42.0004
G22  21761621.089   114358146.606 8  89110277.05847  21761619.831    21761621.913          49.000          43.0004
G23  25044822.192   131611450.715 6 102554397.88143  25044821.373    25044825.761          40.000          23.0004
G25  24516123.494   128833119.654 6 100389458.64044  24516121.768    24516128.391          41.000          26.0004
G26  24901428.250   130857888.421 6 101967187.43643  24901426.765    24901434.379          39.000          19.0004
G31  20270270.259   106521090.351 9  83003489.80548  20270270.331    20270272.890          55.000          48.0004
G32  22507517.015   118277875.124 8  92164611.07746  22507517.273    22507522.973          48.000          40.0004
> 2017 10 22 00 44 00.0000000  0 11
G01  21410361.486   112512273.971 8  87671899.02747  21410361.556    21410367.622          50.000          43.0004
G03  23213223.581   121986329.929 7  95054311.44045  23213223.535    23213229.682          44.000          35.0004
G10  23739645.078   124752709.489 6  97209928.37744  23739644.022    23739651.234          41.000          29.0004
G11  22535325.878   118423970.271 7  92278446.58645  22535325.372    22535328.786          46.000          35.0004
G14  21545616.444   113223078.072 8  88225798.06447  21545615.841    21545619.341          50.000          42.0004
G22  21749082.406   114292257.660 7  89058935.04547  21749081.364    21749083.850          47.000          43.0004
G23  25031030.323   131538974.972 6 102497923.33043  25031030.338    25031034.179          39.000          22.0004
G25  24516059.302   128832792.044 7 100389203.40344  24516059.272    24516065.139          43.000          25.0004
G26  24884601.885   130769487.073 5 101898303.44643  24884601.961    24884612.289          34.000          22.0004
G31  20269116.744   106515026.124 8  82998764.44348  20269116.342    20269118.909          53.000          48.0004
G32  22520329.444   118345202.003 8  92217073.58746  22520329.372    22520334.507          48.000          39.0004
> 2017 10 22 00 44 30.0000000  0 11
G01  21408660.232   112503331.747 8  87664931.04747  21408659.892    21408666.189          50.000          44.0004
G03  23196636.544   121899167.449 7  94986392.68045  23196636.972    23196643.247          44.000          34.0004
G10  23755721.756   124837195.515 7  97275761.60544  23755721.010    23755726.711          42.000          29.0004
G11  22544978.084   118474691.456 7  92317969.57045  22544977.212    22544980.834          46.000          35.0004
G14  21554892.626   113271823.853 8  88263781.79647  21554891.872    21554895.368          49.000          42.0004
G22  21736579.728   114226554.231 8  89007737.58247  21736578.520    21736580.676          49.000          43.0004
G23  25017256.212   131466582.478 6 102441513.60244  25017254.457    25017256.504          41.000          24.0004
G25  24516100.908   128833005.269 6 100389369.56244  24516100.648    24516107.691          41.000          27.0004
G26  24867767.247   130681005.124 6 101829356.50843  24867764.617    24867773.309          36.000          21.0004
G31  20268080.185   106509580.001 8  82994520.71848  20268079.975    20268082.556          52.000          48.0004
G32  22533157.878   118412613.566 8  92269602.08246  22533157.438    22533163.045          49.000          39.0004
> 2017 10 22 00 45 00.0000000  0 11
G01  21407070.969   112494986.030 8  87658427.89047  21407071.475    21407078.250          49.000          44.0004
G03  23180061.714   121812064.982 7  94918520.68645  23180061.805    23180067.994          43.000          34.0004
G10  23771837.358   124921887.957 6  97341755.70544  23771836.114    23771844.251          41.000          28.0004
G11  22554716.116   118525867.696 7  92357847.15145  22554715.949    22554719.177          45.000          35.0004
G14  21564194.856   113320708.528 8  88301873.76047  21564194.269    21564197.677          50.000          42.0004
G22  21724112.326   114161038.058 8  88956686.03547  21724110.992    21724113.537          50.000          43.0004
G23  25003493.378   131394273.116 6 102385168.69043  25003493.768    25003498.318          38.000          23.0004
G25  24516245.035   128833759.973 7 100389957.68244  24516244.134    24516251.090          42.000          27.0004
G26  24850915.063   130592445.218 6 101760348.90543  24850913.292    24850921.091          39.000          22.0004
G31  20267161.412   106504751.976 9  82990758.63348  20267161.230    20267163.775          54.000          48.0004
G32  22546001.112   118480108.994 8  92322195.92046  22546001.311    22546006.835          48.000          39.0004
> 2017 10 22 00 45 30.0000000  0 11
G01  21405597.172   112487237.093 8  87652389.74247  21405596.884    21405603.489          49.000          44.0004
G03  23163497.777   121725023.990 7  94850696.60045  23163497.884    23163504.646          43.000          34.0004
G10  23787993.898   125006786.081 7  97407910.09244  23787993.025    23787998.830          42.000          29.0004
G11  22564540.868   118577496.690 7  92398077.51845  22564540.463    22564544.086          47.000          35.0004
G14  21573524.212   113369730.830 8  88340072.96147  21573523.042    21573526.463          51.000          42.0004
G22  21711681.160   114095711.211 8  88905782.02447  21711679.919    21711682.237          50.000          43.0004
G23  24989751.939   131322046.787 6 102328888.46744  24989751.305    24989754.418          40.000          24.0004
G25  24516489.045   128835056.941 6 100390968.31244  24516488.777    24516498.694          39.000          27.0004
G26  24834047.343   130503810.077 6 101691282.63343  24834045.747    24834055.352          37.000          21.0004
G31  20266360.240   106500541.667 9  82987477.88648  20266360.024    20266362.597          55.000          48.0004
G32  22558860.889   118547687.424 7  92374854.44746  22558860.963    22558866.370          47.000          40.0004
> 2017 10 22 00 46 00.0000000  0 11
G01  21404235.859   112480085.181 8  87646816.81247  21404235.961    21404242.301          50.000          43.0004
G03  23146946.815   121638046.089 7  94782921.65845  23146947.030    23146952.910          43.000          34.0004
G10  23804187.358   125091889.326 6  97474224.30244  23804187.129    23804194.037          40.000          29.0004
G11  22574450.907   118629575.614 7  92438658.47845  22574450.443    22574454.549          47.000          35.0004
G14  21582878.455   113418889.828 8  88378378.68247  21582877.782    21582881.063          49.000          42.0004
G22  21699286.285   114030574.849 8  88855026.44347  21699285.028    21699286.816          50.000          43.0004
G23  24976021.365   131249903.735 6 102272673.20144  24976021.444    24976026.581          39.000          24.0004
G25  24516836.914   128836896.919 6 100392402.04343  24516837.172    24516847.440          37.000          23.0004
G26  24817164.535   130415102.518 6 101622159.92343  24817164.766    24817173.850          36.000          22.0004
G31  20265676.629   106496948.532 9  82984678.05148  20265676.249    20265678.809          55.000          48.0004
G32  22571736.342   118615348.115 7  92427577.06846  22571736.780    22571742.319          47.000          39.0004
> 2017 10 22 00 46 30.0000000  0 11
G01  21402988.109   112473530.409 8  87641709.19647  21402988.340    21402995.116          52.000          43.0004
G03  23130407.648   121551132.711 7  94715196.98545  23130407.590    23130414.300          43.000          34.0004
G10  23820422.263   125177196.889 6  97540697.69944  23820420.888    23820428.042          41.000          29.0004
G11  22584446.775   118682101.589 7  92479587.79545  22584445.987    22584449.999          47.000          35.0004
G14  21592258.703   113468184.399 8  88416790.04347  21592258.068    21592261.505          51.000          42.0004
G22  21686927.585   113965631.014 8  88804420.87447  21686926.300    21686928.689          50.000          43.0004
G23  24962310.461   131177843.742 6 102216522.60643  24962310.154    24962312.301          41.000          22.0004
G25  24517294.677   128839280.536 6 100394259.37243  24517292.466    24517300.655          39.000          22.0004
G26  24800274.302   130326325.268 6 101552982.91943  24800272.626    24800279.639          38.000          22.0004
G31  20265109.947   106493972.384 9  82982358.98248  20265109.840    20265112.465          56.000          48.0004
G32  22584627.452   118683090.198 8  92480363.10246  22584627.290    22584632.605          48.000          39.0004
> 2017 10 22 00 47 00.0000000  0 11
G01  21401855.231   112467572.951 8  87637067.01047  21401854.707    21401861.653          50.000          44.0004
G03  23113880.835   121464285.364 7  94647523.77345  23113881.490    23113887.367          44.000          35.0004
G10  23836691.890   125262708.137 6  97607329.83944  23836692.904    23836699.454          39.000          28.0004
G11  22594526.913   118735072.250 7  92520863.62845  22594526.237    22594529.779          46.000          34.0004
G14  21601664.748   113517613.490 8  88455306.22347  21601664.012    21601667.580          49.000          42.0004
G22  21674606.563   113900881.795 8  88753966.96147  21674605.253    21674607.364          50.000          43.0004
G23  24948613.096   131105866.518 6 102160436.52444  24948611.617    24948616.173          41.000          24.0004
G25  24517853.219   128842208.346 6 100396540.88244  24517852.777    24517857.198          40.000          26.0004
G26  24783365.517   130237481.103 6 101483753.77143  24783365.674    24783373.145          36.000          22.0004
G31  20264660.695   106491612.653 9  82980520.24448  20264660.809    20264663.399          54.000          48.0004
G32  22597533.668   118750912.902 8  92533211.96946  22597533.831    22597539.334          48.000          39.0004
> 2017 10 22 00 47 30.0000000  0 11
G01  21400834.762   112462212.942 8  87632890.36647  21400834.853    21400841.616          51.000          44.0004
G03  23097367.593   121377505.603 7  94579903.22545  23097367.446    23097373.617          43.000          35.0004
G10  23853004.808   125348422.344 7  97674120.10744  23853003.748    23853010.754          42.000          28.0004
G11  22604689.553   118788484.851 7  92562483.81045  22604689.712    22604693.939          45.000          34.0004
G14  21611096.462   113567176.007 8  88493926.37247  21611095.474    21611098.991          50.000          42.0004
G22  21662322.131   113836328.503 8  88703665.72047  21662320.928    21662322.860          49.000          43.0004
G23  24934927.960   131033971.900 6 102104414.84443  24934928.746    24934934.505          37.000          22.0004
G25  24518513.815   128845681.037 6 100399246.92344  24518512.861    24518517.418          40.000          25.0004
G26  24766447.907   130148572.816 6 101414474.66543  24766448.298    24766454.612          39.000          23.0004
G31  20264328.944   106489868.984 9  82979161.55247  20264328.951    20264331.550          55.000          47.0004
G32  22610454.503   118818815.469 8  92586123.04746  22610455.003    22610460.211          48.000          39.0004
> 2017 10 22 00 48 00.0000000  0 11
G01  21399928.734   112457450.586 7  87629179.43347  21399928.578    21399935.198          47.000          44.0004
G03  23080867.015   121290795.127 7  94512336.66545  23080867.035    23080873.389          44.000          35.0004
G10  23869354.046   125434338.969 7  97741068.10844  23869353.387    23869360.128          43.000          28.0004
G11  22614938.255   118842336.856 7  92604446.38545  22614937.191    22614941.630          46.000          34.0004
G14  21620552.919   113616871.376 8  88532650.03747  21620552.080    21620555.783          49.000          42.0004
G22  21650076.157   113771973.454 8  88653518.94347  21650074.778    21650076.886          50.000          43.0004
G23  24921263.578   130962160.030 6 102048457.55743  24921264.227    24921266.634          39.000          21.0004
G25  24519277.604   128849699.356 7 100402378.11744  24519276.506    24519283.323          42.000          25.0004
G26  24749515.653   130059603.338 6 101345147.89443  24749515.423    24749524.267          37.000          20.0004
G31  20264114.293   106488741.289 8  82978282.83848  20264114.328    20264116.922          52.000          48.0004
G32  22623392.172   118886797.196 7  92639095.82746  22623391.710    22623397.264          47.000          39.0004
> 2017 10 22 00 48 30.0000000  0 11
G01  21399136.646   112453285.812 8  87625934.13447  21399136.184    21399142.702          50.000          43.0004
G03  23064379.506   121204155.244 7  94444825.10045  23064379.801    23064386.271          42.000          34.0004
G10  23885740.265   125520457.010 6  97808173.07744  23885740.739    23885746.953          40.000          28.0004
G11  22625269.645   118896625.408 7  92646749.13445  22625268.675    22625272.253          45.000          35.0004
G14  21630034.003   113666698.301 8  88571476.21746  21630033.822    21630037.516          49.000          41.0004
G22  21637867.450   113707817.899 8  88603527.62947  21637866.053    21637868.287          51.000          43.0004
G23  24907615.673   130890430.669 6 101992564.60943  24907613.698    24907619.114          39.000          23.0004
G25  24520145.116   128854263.725 6 100405934.77444  24520144.198    24520150.624          41.000          24.0004
G26  24732576.690   129970575.316 6 101275775.45443  24732574.837    24732582.080          38.000          22.0004
G31  20264017.001   106488228.720 8  82977883.43948  20264016.798    20264019.363          53.000          48.0004
G32  22636343.490   118954857.157 8  92692129.55346  22636342.819    22636348.141          48.000          39.0004
> 2017 10 22 00 49 00.0000000  0 11
G01  21398457.436   112449718.726 8  87623154.58047  21398457.554    21398464.144          51.000          44.0004
G03  23047906.900   121117587.653 7  94377369.87145  23047906.578    23047912.986          44.000          35.0004
G10  23902169.361   125606775.886 7  97875434.51244  23902166.915    23902174.246          43.000          29.0004
G11  22635683.432   118951347.799 7  92689389.94645  22635682.143    22635685.814          46.000          35.0004
G14  21639540.774   113716655.840 8  88610404.17247  21639540.475    21639544.107          50.000          42.0004
G22  21625697.374   113643864.069 8  88553693.49147  21625696.245    21625698.253          51.000          43.0004
G23  24893983.028   130818783.738 7 101936735.93044  24893981.538    24893984.622          42.000          24.0004
G25  24521118.913   128859374.765 6 100409917.40044  24521118.141    24521122.931          41.000          24.0004
G26  24715626.195   129881491.507 6 101206359.60543  24715623.053    24715631.641          41.000          22.0004
G31  20264035.980   106488330.921 8  82977963.08548  20264036.190    20264038.779          53.000          48.0004
G32  22649308.523   119022994.680 7  92745223.73646  22649308.868    22649314.421          46.000          39.0004
> 2017 10 22 00 49 30.0000000  0 11
G01  21397892.951   112446749.351 8  87620840.77647  21397892.503    21397899.311          51.000          43.0004
G03  23031447.283   121031093.902 7  94309972.14745  23031447.318    23031453.579          42.000          35.0004
G10  23918630.834   125693294.909 6  97942851.93444  23918630.531    23918637.358          39.000          27.0004
G11  22646178.644   119006501.193 7  92732366.58445  22646177.509    22646181.098          47.000          34.0004
G14  21649072.388   113766742.888 8  88649433.04247  21649071.708    21649075.270          49.000          42.0004
G22  21613565.295   113580113.141 8  88504017.46147  21613564.573    21613566.776          50.000          44.0004
G23  24880362.919   130747219.184 6 101880971.39043  24880362.208    24880366.013          40.000          22.0004
G25  24522195.916   128865032.948 6 100414326.43044  24522195.802    24522199.319          40.000          24.0004
G26  24698659.537   129792354.881 6 101136902.53443  24698659.592    24698668.329          37.000          21.0004
G31  20264172.698   106489047.479 8  82978521.44648  20264172.662    20264175.166          53.000          48.0004
G32  22662290.498   119091209.005 8  92798377.74046  22662289.601    22662295.439          49.000          39.0004
> 2017 10 22 00 50 00.0000000  0 11
G01  21397441.557   112444377.720 8  87618992.74147  21397441.276    21397448.069          51.000          44.0004
G03  23015002.496   120944675.562 7  94242633.23246  23015002.730    23015008.743          44.000          36.0004
G10  23935133.242   125780013.175 6  98010424.62244  23935133.238    23935140.342          40.000          29.0004
G11  22656755.477   119062083.117 7  92775677.16145  22656753.981    22656757.867          47.000          34.0004
G14  21658628.200   113816958.650 8  88688562.20246  21658627.626    21658631.065          49.000          41.0004
G22  21601473.927   113516567.084 8  88454501.08647  21601472.601    21601474.392          50.000          44.0004
G23  24866760.032   130675737.016 6 101825271.06444  24866760.364    24866763.805          40.000          24.0004
G25  24523376.463   128871238.805 6 100419162.19044  24523375.427    24523381.264          38.000          24.0004
G26  24681691.679   129703168.102 6 101067406.41143  24681689.029    24681697.219          39.000          22.0004
G31  20264425.745   106490377.612 9  82979557.91948  20264425.765    20264428.255          55.000          48.0004
G32  22675285.437   119159499.344 8  92851590.99246  22675285.057    22675290.232          48.000          38.0004
> 2017 10 22 00 50 30.0000000  0 11
G01  21397104.198   112442603.838 8  87617610.48747  21397103.793    21397110.545          48.000          44.0004
G03  22998572.165   120858334.336 7  94175354.39145  22998572.266    22998578.201          44.000          35.0004
G10  23951675.604   125866930.278 7  98078152.19244  23951673.666    23951679.010          42.000          28.0004
G11  22667413.330   119118090.756 8  92819319.46245  22667412.157    22667415.914          48.000          34.0004
G14  21668208.190   113867301.870 8  88727790.68747  21668207.693    21668210.999          48.000          42.0004
G22  21589420.451   113453228.048 8  88405145.99547  21589419.268    21589421.248          50.000          43.0004
G23  24853172.472   130604337.112 6 101769634.83044  24853173.512    24853177.188          39.000          25.0004
G25  24524661.166   128877992.879 6 100424425.08844  24524660.549    24524666.992          40.000          24.0004
G26  24664708.161   129613934.163 6 100997873.49543  24664708.151    24664716.478          37.000          22.0004
G31  20264795.561   106492320.986 8  82981072.25048  20264795.484    20264798.023          52.000          48.0004
G32  22688294.534   119227865.078 7  92904862.97646  22688294.647    22688300.211          47.000          39.0004
> 2017 10 22 00 51 00.0000000  0 11
G01  21396880.216   112441427.450 8  87616693.81847  21396879.909    21396886.648          51.000          44.0004
G03  22982158.302   120772071.590 7  94108136.73046  22982157.394    22982163.569          44.000          36.0004
G10  23968251.623   125954044.935 7  98146033.73644  23968251.011    23968256.707          42.000          28.0004
G11  22678150.641   119174521.492 7  92863291.42945  22678150.490    22678153.961          45.000          34.0004
G14  21677812.559   113917771.722 8  88767117.83746  21677811.836    21677815.014          50.000          41.0004
G22  21577407.094   113390097.370 8  88355953.28747  21577406.057    21577408.011          51.000          44.0004
G23  24839600.277   130533019.159 6 101714062.44343  24839601.505    24839604.001          39.000          23.0004
G25  24526053.111   128885295.421 6 100430115.37243  24526051.203    24526052.480          41.000          22.0004
G26  24647721.370   129524655.586 6 100928305.81443  24647719.102    24647726.761          39.000          23.0004
G31  20265282.413   106494876.996 9  82983063.95248  20265281.930    20265284.455          55.000          48.0004
G32  22701318.239   119296305.217 7  92958192.95146  22701318.088    22701323.683          47.000          38.0004
> 2017 10 22 00 51 30.0000000  0 11
G01  21396770.031   112440848.675 8  87616242.82847  21396769.754    21396776.391          48.000          43.0004
G03  22965757.351   120685889.094 7  94040981.56345  22965756.874    22965762.664          44.000          34.0004
G10  23984863.676   126041356.831 6  98214069.01044  23984864.204    23984871.743          38.000          27.0004
G11  22688969.607   119231372.428 7  92907590.83545  22688968.522    22688972.536          46.000          34.0004
G14  21687440.501   113968367.380 8  88806543.02447  21687439.786    21687443.081          50.000          42.0004
G22  21565433.477   113327177.213 8  88306924.60547  21565432.720    21565434.554          51.000          43.0004
G23  24826046.443   130461783.166 6 101658553.94644  24826045.918    24826051.184          39.000          25.0004
G25  24527545.930   128893147.019 7 100436233.59043  24527545.475    24527545.973          42.000          22.0004
G26  24630720.530   129435335.554 6 100858705.80143  24630721.848    24630729.928          38.000          23.0004
G31  20265885.267   106498044.898 9  82985532.45748  20265884.781    20265887.271          54.000          48.0004
G32  22714356.945   119364819.296 8  93011580.54046  22714356.251    22714361.707          48.000          38.0004
> 2017 10 22 00 52 00.0000000  0 11
G01  21396774.138   112440867.399 8  87616257.40447  21396773.354    21396779.885          51.000          44.0004
G03  22949372.539   120599788.471 7  93973890.19546  22949372.806    22949379.815          45.000          36.0004
G10  24001519.921   126128865.018 7  98282257.19244  24001517.925    24001523.634          43.000          27.0004
G11  22699867.465   119288640.808 7  92952215.53645  22699866.859    22699870.517          47.000          34.0004
G14  21697091.874   114019087.867 8  88846065.48146  21697091.608    21697095.018          49.000          41.0004
G22  21553500.854   113264469.366 8  88258061.37147  21553499.731    21553501.857          51.000          44.0004
G23  24812506.572   130390629.061 6 101603109.29944  24812505.693    24812510.833          41.000          25.0004
G25  24529144.816   128901548.076 7 100442779.94943  24529143.868    24529146.126          42.000          23.0004
G26  24613716.560   129345976.863 6 100789075.66644  24613717.823    24613725.193          37.000          24.0004
G31  20266604.151   106501824.182 9  82988477.36148  20266603.956    20266606.488          55.000          48.0004
G32  22727406.967   119433406.538 7  93065025.13246  22727407.416    22727413.339          46.000          38.0004
> 2017 10 22 00 52 30.0000000  0 11
G01  21396891.279   112441483.438 8  87616737.45147  21396890.621    21396897.159          53.000          44.0004
G03  22933004.766   120513771.347 7  93906863.90445  22933004.232    22933010.228          45.000          35.0004
G10  24018205.930   126216568.799 6  98350597.77044  24018206.739    24018213.630          38.000          28.0004
G11  22710843.209   119346323.833 7  92997163.31345  22710843.511    22710847.239          44.000          34.0004
G14  21706767.741   114069931.953 8  88885684.25646  21706766.823    21706770.324          49.000          41.0004
G22  21541609.393   113201975.768 8  88209365.06947  21541607.773    21541609.584          51.000          44.0004
G23  24798983.193   130319556.894 7 101547728.42844  24798981.743    24798984.175          42.000          24.0004
G25  24530847.719   128910498.960 7 100449754.69844  24530847.592    24530852.397          43.000          24.0004
G26  24596706.082   129256582.283 6 100719417.59843  24596705.850    24596713.728          38.000          23.0004
G31  20267439.686   106506213.971 9  82991897.99148  20267439.297    20267441.819          56.000          48.0004
G32  22740473.988   119502066.228 8  93118526.18846  22740473.574    22740478.377          48.000          38.0004
> 2017 10 22 00 53 00.0000000  0 11
G01  21397121.943   112442696.594 8  87617682.77147  21397121.560    21397128.053          52.000          44.0004
G03  22916652.015   120427839.278 7  93839903.89645  22916652.086    22916657.902          45.000          35.0004
G10  24034932.113   126304467.289 6  98419090.11744  24034932.533    24034940.309          39.000          27.0004
G11  22721899.388   119404418.621 7  93042431.95945  22721898.350    22721902.303          44.000          34.0004
G14  21716466.668   114120898.928 8  88925398.78046  21716465.426    21716469.043          49.000          41.0004
G22  21529757.672   113139697.861 8  88160836.84047  21529756.575    21529758.423          50.000          44.0004
G23  24785474.064   130248566.259 7 101492411.11344  24785472.114    24785475.583          42.000          24.0004
G25  24532656.728   128919999.943 6 100457158.07644  24532655.543    24532661.782          41.000          27.0004
G26  24579689.309   129167154.705 6 100649733.81543  24579687.980    24579697.521          37.000          23.0004
G31  20268390.697   106511213.677 8  82995793.87648  20268390.707    20268393.217          53.000          48.0004
G32  22753552.374   119570797.588 7  93172083.09446  22753552.284    22753558.122          47.000          38.0004
> 2017 10 22 00 53 30.0000000  0 11
G01  21397465.977   112444506.769 8  87619093.29847  21397465.906    21397472.477          51.000          44.0004
G03  22900315.945   120341993.971 7  93773011.50146  22900315.848    22900322.258          45.000          36.0004
G10  24051698.088   126392559.786 6  98487733.58544  24051697.197    24051703.641          41.000          28.0004
G11  22733032.414   119462922.345 7  93088019.25645  22733031.485    22733035.269          46.000          33.0004
G14  21726187.911   114171987.923 8  88965208.38846  21726187.410    21726190.904          48.000          41.0004
G22  21517947.960   113077637.402 8  88112478.06347  21517946.739    21517948.779          51.000          44.0004
G23  24771980.279   130177657.111 6 101437157.33943  24771979.212    24771981.241          41.000          23.0004
G25  24534568.446   128930051.407 7 100464990.40844  24534567.516    24534574.308          43.000          27.0004
G26  24562666.469   129077697.077 6 100580026.55943  24562664.696    24562672.507          39.000          23.0004
G31  20269458.386   106516822.897 9  83000164.71048  20269458.103    20269460.625          55.000          48.0004
G32  22766645.243   119639600.001 7  93225695.36346  22766645.404    22766650.103          47.000          38.0004
> 2017 10 22 00 54 00.0000000  0 11
G01  21397923.831   112446913.767 8  87620968.89747  21397923.786    21397930.344          49.000          44.0004
G03  22883997.037   120256237.153 7  93706188.04846  22883997.179    22884003.205          44.000          36.0004
G10  24068497.648   126480845.456 6  98556527.64644  24068497.503    24068504.212          41.000          27.0004
G11  22744242.208   119521832.239 7  93133923.04745  22744241.584    22744245.554          45.000          33.0004
G14  21735932.980   114223197.849 8  89005112.23346  21735932.246    21735935.861          49.000          41.0004
G22  21506180.178   113015796.449 8  88064290.31147  21506179.020    21506180.861          50.000          44.0004
G23  24758501.409   130106829.656 6 101381967.15144  24758500.745    24758503.314          39.000          24.0004
G25  24536586.067   128940653.765 7 100473252.01644  24536585.796    24536590.589          43.000          26.0004
G26  24545638.229   128988212.305 6 100510298.19044  24545637.413    24545644.868          39.000          24.0004
G31  20270641.374   106523039.910 9  83005009.15048  20270641.186    20270643.696          55.000          48.0004
G32  22779750.926   119708472.867 8  93279362.53946  22779750.962    22779756.928          48.000          38.0004
> 2017 10 22 00 54 30.0000000  0 11
G01  21398495.549   112449917.220 8  87623309.25647  21398495.360    21398501.886          49.000          43.0004
G03  22867694.029   120170570.303 7  93639434.68746  22867694.412    22867700.957          43.000          36.0004
G10  24085333.659   126569323.445 6  98625471.50844  24085333.205    24085339.834          39.000          26.0004
G11  22755531.567   119581145.459 7  93180141.12245  22755528.681    22755532.426          46.000          33.0004
G14  21745701.492   114274527.820 8  89045109.61746  21745700.141    21745703.551          50.000          40.0004
G22  21494454.031   112954176.963 8  88016275.14847  21494453.080    21494454.815          50.000          44.0004
G23  24745039.999   130036083.064 7 101326840.04744  24745038.980    24745042.915          43.000          27.0004
G25  24538707.870   128951807.082 6 100481942.90644  24538706.556    24538713.373          41.000          25.0004
G26  24528603.585   128898703.094 6 100440550.76143  24528603.581    24528611.811          37.000          23.0004
G31  20271940.142   106529864.673 9  83010327.15948  20271939.868    20271942.346          55.000          48.0004
G32  22792870.139   119777415.302 7  93333083.92646  22792870.589    22792875.900          45.000          38.0004
> 2017 10 22 00 55 00.0000000  0 11
G01  21399180.523   112453516.965 8  87626114.26947  21399180.461    21399186.790          49.000          44.0004
G03  22851411.146   120084995.219 7  93572752.84446  22851410.847    22851416.806          45.000          36.0004
G10  24102205.479   126657993.077 6  98694564.70244  24102205.615    24102212.897          38.000          25.0004
G11  22766891.926   119640859.538 7  93226671.57645  22766892.067    22766895.662          45.000          33.0004
G14  21755490.886   114325977.094 8  89085199.96746  21755490.546    21755493.911          49.000          41.0004
G22  21482770.649   112892781.177 8  87968434.29447  21482769.705    21482771.837          50.000          44.0004
G23  24731592.785   129965417.616 7 101271776.15444  24731590.578    24731593.544          43.000          25.0004
G25  24540934.006   128963511.741 7 100491063.42744  24540933.182    24540940.897          42.000          25.0004
G26  24511567.094   128809172.492 6 100370786.69244  24511566.454    24511575.986          38.000          24.0004
G31  20273354.330   106537297.014 9  83016118.60548  20273354.170    20273356.652          54.000          48.0004
G32  22806002.365   119846426.778 8  93386859.11146  22806002.784    22806008.611          48.000          38.0004
> 2017 10 22 00 55 30.0000000  0 11
G01  21399978.162   112457712.654 8  87629383.63347  21399978.962    21399985.146          48.000          44.0004
G03  22835142.707   119999513.468 7  93506143.74346  22835143.363    22835149.420          44.000          36.0004
G10  24119117.581   126746853.234 6  98763806.42444  24119116.974    24119123.274          41.000          27.0004
G11  22778329.110   119700971.333 7  93273511.90245  22778330.634    22778334.562          44.000          33.0004
G14  21765303.912   114377544.775 8  89125382.59946  21765303.447    21765306.921          49.000          41.0004
G22  21471130.891   112831610.370 8  87920768.74347  21471129.577    21471131.354          51.000          44.0004
G23  24718160.019   129894833.092 6 101216775.30344  24718158.434    24718161.178          41.000          24.0004
G25  24543267.294   128975767.856 6 100500613.66744  24543266.986    24543273.399          40.000          26.0004
G26  24494525.252   128719623.317 6 100301008.13344  24494526.755    24494533.207          38.000          24.0004
G31  20274883.825   106545335.175 8  83022382.12448  20274883.728    20274886.249          53.000          48.0004
G32  22819148.811   119915506.513 7  93440687.48646  22819148.565    22819153.804          46.000          38.0004
> 2017 10 22 00 56 00.0000000  0 11
G01  21400890.852   112462503.874 8  87633117.06047  21400890.754    21400896.826          49.000          44.0004
G03  22818896.015   119914126.747 7  93439608.68146  22818895.523    22818901.780          45.000          36.0004
G10  24136063.311   126835903.236 6  98833196.01344  24136062.661    24136068.291          40.000          27.0004
G11  22789846.696   119761477.717 7  93320659.68445  22789844.711    22789848.810          46.000          33.0004
G14  21775139.597   114429229.564 7  89165656.47446  21775138.831    21775142.376          47.000          41.0004
G22  21459533.464   112770666.025 8  87873279.65747  21459532.023    21459533.903          50.000          45.0004
G23  24704740.596   129824329.341 6 101161837.40144  24704741.569    24704746.291          40.000          25.0004
G25  24545704.743   128988575.563 7 100510593.73344  24545703.985    24545710.301          42.000          26.0004
G26  24477484.231   128630058.425 6 100231217.32444  24477482.068    24477490.182          38.000          24.0004
G31  20276528.602   106553978.097 8  83029116.88448  20276528.378    20276530.953          53.000          48.0004
G32  22832306.528   119984653.839 8  93494568.52846  22832306.387    22832311.976          48.000          38.0004
> 2017 10 22 00 56 30.0000000  0 11
G01  21401916.242   112467890.546 8  87637314.46347  21401915.727    21401921.933          49.000          44.0004
G03  22802664.306   119828836.896 7  93373149.09046  22802664.813    22802671.048          44.000          36.0004
G10  24153044.487   126925142.462 6  98902733.05544  24153043.527    24153051.503          41.000          27.0004
G11  22801435.879   119822376.182 7  93368113.04345  22801433.218    22801436.985          45.000          33.0004
G14  21784997.095   114481030.894 7  89206021.16346  21784996.280    21784999.770          47.000          40.0004
G22  21447979.367   112709950.310 8  87825968.72247  21447978.174    21447980.166          52.000          44.0004
G23  24691341.945   129753906.310 6 101106962.37044  24691342.005    24691344.588          41.000          26.0004
G25  24548245.571   129001935.323 6 100521003.96244  24548245.102    24548253.033          39.000          25.0004
G26  24460435.796   128540480.921 6 100161416.70344  24460436.230    24460444.012          38.000          24.0004
G31  20278287.991   106563225.511 8  83036322.67248  20278288.100    20278290.654          53.000          48.0004
G32  22845478.612   120053868.311 8  93548501.88846  22845478.078    22845483.476          48.000          38.0004
> 2017 10 22 00 57 00.0000000  0 11
G01  21403054.621   112473872.140 8  87641975.45747  21403053.952    21403060.069          53.000          44.0004
G03  22786453.712   119743645.562 7  93306766.26146  22786453.795    22786460.087          44.000          36.0004
G10  24170062.584   127014569.846 6  98972416.74944  24170061.605    24170066.449          40.000          25.0004
G11  22813095.035   119883663.647 7  93415869.50445  22813095.752    22813099.634          44.000          33.0004
G14  21794876.643   114532947.774 8  89246475.88246  21794875.625    21794879.176          48.000          40.0004
G22  21436469.309   112649465.586 8  87778837.78447  21436468.354    21436470.021          51.000          45.0004
G23  24677954.124   129683564.132 6 101052150.32844  24677955.072    24677958.531          39.000          25.0004
G25  24550892.886   129015847.133 6 100531844.34444  24550892.532    24550899.914          39.000          25.0004
G26  24443390.187   128450893.677 6 100091608.51044  24443388.677    24443394.975          39.000          24.0004
G31  20280162.662   106573076.453 9  83043998.74848  20280162.657    20280165.220          54.000          48.0004
G32  22858661.551   120123149.196 7  93602487.00046  22858661.308    22858666.299          47.000          37.0004
> 2017 10 22 00 57 30.0000000  0 11
G01  21404304.340   112480448.201 8  87647099.66147  21404305.327    21404311.553          50.000          44.0004
G03  22770261.565   119658554.321 7  93240461.43146  22770261.060    22770267.435          44.000          36.0004
G10  24187114.646   127104184.497 6  99042246.30444  24187113.608    24187121.884          40.000          26.0004
G11  22824831.656   119945337.199 7  93463926.76645  22824832.347    22824835.546          45.000          33.0004
G14  21804777.699   114584979.210 8  89287019.87646  21804776.901    21804780.467          49.000          40.0004
G22  21425003.341   112589212.997 8  87731887.73847  21425002.587    21425004.649          51.000          45.0004
G23  24664588.135   129613302.316 7 100997400.92844  24664585.728    24664589.541          44.000          26.0004
G25  24553647.114   129030311.006 7 100543114.88644  24553645.136    24553651.969          42.000          24.0004
G26  24426340.738   128361299.510 6 100021794.91544  24426339.199    24426347.818          40.000          24.0004
G31  20282152.089   106583529.682 9  83052144.13847  20282151.828    20282154.370          54.000          47.0004
G32  22871857.593   120192495.693 7  93656523.23246  22871857.894    22871863.404          47.000          37.0004
> 2017 10 22 00 58 00.0000000  0 11
G01  21405668.845   112487618.545 7  87652686.93547  21405669.629    21405676.094          47.000          44.0004
G03  22754088.664   119573565.160 7  93174236.15346  22754088.780    22754094.282          45.000          37.0004
G10  24204204.634   127193985.779 6  99112221.39044  24204204.390    24204209.517          39.000          26.0004
G11  22836643.339   120007394.037 7  93512282.74245  22836641.050    22836644.884          45.000          33.0004
G14  21814700.894   114637124.776 8  89327652.79846  21814699.920    21814703.386          48.000          40.0004
G22  21413582.318   112529194.632 8  87685120.19747  21413581.397    21413583.431          51.000          44.0004
G23  24651229.859   129543121.027 6 100942714.28244  24651229.325    24651233.580          41.000          25.0004
G25  24556503.477   129045327.262 7 100554815.87844  24556502.267    24556509.195          42.000          24.0004
G26  24409291.196   128271701.584 6  99951978.40644  24409289.437    24409296.946          40.000          24.0004
G31  20284255.849   106594584.709 9  83060758.45648  20284255.500    20284258.059          54.000          48.0004
G32  22885066.085   120261907.481 7  93710610.33846  22885066.036    22885071.328          46.000          37.0004
> 2017 10 22 00 58 30.0000000  0 11
G01  21407147.349   112495382.411 8  87658736.69647  21407147.154    21407153.637          48.000          44.0004
G03  22737935.364   119488679.514 7  93108091.51346  22737935.148    22737941.005          45.000          37.0004
G10  24221329.186   127283972.603 6  99182340.91644  24221328.181    24221333.675          41.000          26.0004
G11  22848524.840   120069831.121 7  93560935.01245  22848522.730    22848526.145          47.000          33.0004
G14  21824645.822   114689383.139 8  89368373.60446  21824644.447    21824647.806          50.000          40.0004
G22  21402206.754   112469412.303 8  87638536.58047  21402205.532    21402207.034          51.000          45.0004
G23  24637890.867   129473019.538 6 100888089.81744  24637891.256    24637893.847          41.000          26.0004
G25  24559466.647   129060895.739 7 100566947.18044  24559465.672    24559472.364          42.000          26.0004
G26  24392238.986   128182102.544 6  99882161.02444  24392238.839    24392246.530          39.000          24.0004
G31  20286473.722   106606239.997 8  83069840.51348  20286473.444    20286475.996          52.000          48.0004
G32  22898287.544   120331383.623 7  93764747.60946  22898287.136    22898292.515          47.000          37.0004
> 2017 10 22 00 59 00.0000000  0 11
G01  21408738.186   112503739.548 8  87665248.74547  21408737.498    21408743.980          51.000          44.0004
G03  22721801.943   119403899.320 7  93042029.05746  22721802.235    22721808.288          44.000          37.0004
G10  24238488.151   127374144.253 6  99252604.58943  24238484.267    24238493.965          40.000          23.0004
G11  22860475.528   120132645.489 7  93609881.27745  22860475.893    22860479.559          44.000          33.0004
G14  21834610.824   114741753.733 8  89409181.86346  21834610.092    21834613.552          48.000          40.0004
G22  21390875.288   112409868.068 8  87592138.49847  21390874.153    21390876.448          51.000          45.0004
G23  24624566.172   129402998.253 6 100833527.83944  24624565.663    24624569.326          40.000          25.0004
G25  24562534.922   129077016.620 7 100579508.92044  24562534.343    24562539.567          43.000          26.0004
G26  24375188.726   128092505.564 6  99812345.27844  24375188.994    24375197.737          37.000          24.0004
G31  20288805.833   106618494.981 9  83079389.87048  20288805.494    20288807.979          54.000          48.0004
G32  22911520.870   120400923.722 7  93818934.68546  22911520.270    22911525.687          47.000          37.0004
> 2017 10 22 00 59 30.0000000  0 11
G01  21410441.497   112512689.408 8  87672222.65847  21410440.548    21410447.105          50.000          44.0004
G03  22705688.892   119319226.318 7  92976050.09246  22705689.160    22705695.403          46.000          37.0004
G10  24255676.631   127464499.727 6  99323011.47544  24255680.264    24255684.532          37.000          25.0004
G11  22872497.704   120195834.297 7  93659119.26245  22872499.831    22872504.117          45.000          33.0004
G14  21844597.502   114794235.673 7  89450076.89946  21844596.921    21844600.701          47.000          40.0004
G22  21379590.466   112350563.678 8  87545927.30047  21379589.112    21379590.986          50.000          44.0004
G23  24611259.112   129333056.890 7 100779028.13844  24611256.902    24611259.593          42.000          26.0004
G25  24565708.530   129093689.944 6 100592501.18344  24565706.906    24565711.085          40.000          24.0004
G26  24358139.919   128002913.567 6  99742533.36244  24358140.548    24358147.872          38.000          25.0004
G31  20291251.722   106631348.576 9  83089405.66948  20291251.486    20291253.981          54.000          48.0004
G32  22924765.801   120470527.104 8  93873171.09046  22924765.561    22924770.687          48.000          37.0004
> 2017 10 22 01 00 00.0000000  0 11
G01  21412256.651   112522231.435 8  87679657.99847  21412256.323    21412262.910          50.000          44.0004
G03  22689597.186   119234662.163 7  92910155.96846  22689597.168    22689603.841          46.000          37.0004
G10  24272912.214   127555038.228 6  99393560.92744  24272910.458    24272917.399          41.000          28.0004
G11  22884595.643   120259394.757 7  93708646.85145  22884595.710    22884599.115          44.000          33.0004
G14  21854605.897   114846827.949 8  89491057.89746  21854605.090    21854608.483          49.000          40.0004
G22  21368351.115   112291501.072 8  87499904.50947  21368349.901    21368351.655          50.000          45.0004
G23  24597962.288   129263195.334 6 100724590.59144  24597962.139    24597964.700          41.000          26.0004
G25  24568985.510   129110915.611 7 100605923.83443  24568984.535    24568989.507          42.000          23.0004
G26  24341092.773   127913329.489 6  99672727.66544  24341093.201    24341100.051          38.000          25.0004
G31  20293811.264   106644799.555 9  83099886.96748  20293811.086    20293813.565          54.000          48.0004
G32  22938023.286   120540193.164 7  93927456.32246  22938022.355    22938027.787          45.000          37.0004
> 2017 10 22 01 00 30.0000000  0 11
G01  21414183.831   112532365.116 8  87687554.36947  21414184.545    21414191.242          49.000          44.0004
G03  22673526.727   119150208.742 7  92844348.10546  22673526.626    22673532.490          45.000          37.0004
G10  24290170.247   127645758.911 6  99464252.34643  24290170.876    24290177.687          37.000          22.0004
G11  22896763.856   120323323.413 7  93758461.37345  22896760.473    22896764.419          46.000          33.0004
G14  21864634.261   114899529.892 8  89532124.34946  21864633.762    21864637.143          48.000          40.0004
G22  21357158.045   112232681.815 8  87454071.35347  21357156.733    21357158.910          51.000          45.0004
G23  24584684.729   129193413.218 7 100670215.03744  24584682.896    24584686.501          44.000          26.0004
G25  24572366.367   129128693.661 6 100619776.90143  24572365.273    24572372.517          38.000          21.0004
G26  24324048.732   127823756.206 6  99602930.40044  24324047.026    24324055.474          39.000          24.0004
G31  20296484.181   106658847.068 9  83110833.09148  20296484.227    20296486.684          54.000          48.0004
G32  22951290.967   120609921.341 7  93981789.96646  22951291.156    22951297.012          46.000          37.0004
> 2017 10 22 01 01 00.0000000  0 11
G01  21416224.739   112543089.823 8  87695911.25947  21416225.583    21416232.072          50.000          44.0004
G03  22657476.238   119065867.683 7  92778627.79946  22657476.290    22657483.127          45.000          37.0004
G10  24307470.513   127736660.614 6  99535084.91044  24307469.275    24307477.397          37.000          25.0004
G11  22908998.331   120387617.852 7  93808560.93445  22908995.271    22908999.002          47.000          32.0004
G14  21874683.926   114952340.497 8  89573275.47746  21874683.394    21874686.846          49.000          40.0004
G22  21346011.763   112174108.139 8  87408429.54247  21346010.546    21346012.503          50.000          45.0004
G23  24571417.124   129123710.708 6 100615901.45744  24571417.615    24571421.708          38.000          26.0004
G25  24575849.540   129147024.078 5 100634060.36143  24575850.861    24575862.358          31.000          20.0004
G26  24307004.795   127734196.764 6  99533143.86744  24307004.030    24307012.765          38.000          25.0004
G31  20299270.987   106673489.688 9  83122242.93948  20299270.638    20299273.073          55.000          48.0004
G32  22964572.015   120679710.974 7  94036171.48146  22964571.539    22964577.136          47.000          37.0004
> 2017 10 22 01 01 30.0000000  0 11
G01  21418378.926   112554405.015 8  87704728.27447  21418378.852    21418385.345          51.000          44.0004
G03  22641449.390   118981640.879 7  92712996.52546  22641448.983    22641455.071          46.000          37.0004
G10  24324804.358   127827742.649 6  99606057.92244  24324803.034    24324808.314          40.000          25.0004
G11  22921300.350   120452275.282 7  93858943.34445  22921299.512    22921303.035          45.000          32.0004
G14  21884754.458   115005259.351 8  89614510.95446  21884753.557    21884756.935          49.000          40.0004
G22  21334913.094   112115781.870 8  87362980.51847  21334911.662    21334913.427          49.000          45.0004
G23  24558171.177   129054087.228 7 100561649.47144  24558170.215    24558172.353          42.000          26.0004
G25  24579448.652   129165906.793 6 100648774.07543  24579446.731    24579456.423          38.000          23.0004
G26  24289966.086   127644654.197 6  99463370.50744  24289965.910    24289973.340          39.000          25.0004
G31  20302169.892   106688726.594 9  83134115.86848  20302170.123    20302172.567          54.000          48.0004
G32  22977864.237   120749561.571 7  94090600.51646  22977863.894    22977869.161          47.000          37.0004
> 2017 10 22 01 02 00.0000000  0 11
G01  21420644.799   112566309.951 8  87714004.83647  21420644.226    21420650.605          50.000          44.0004
G03  22625442.444   118897530.015 7  92647455.61146  22625442.596    22625449.450          44.000          37.0004
G10  24342169.833   127919004.044 6  99677170.67744  24342169.641    24342176.596          40.000          25.0004
G11  22933669.756   120517292.262 7  93909605.88045  22933671.389    22933675.807          44.000          32.0004
G14  21894845.402   115058285.367 8  89655829.92546  21894844.155    21894847.324          49.000          40.0004
G22  21323860.986   112057705.093 8  87317725.91247  21323859.796    21323861.664          51.000          44.0004
G23  24544937.886   128984542.955 7 100507459.19744  24544936.361    24544939.295          43.000          26.0004
G25  24583148.556   129185341.417 7 100663917.96944  24583147.134    24583155.599          43.000          29.0004
G26  24272929.972   127555131.407 6  99393612.54944  24272929.856    24272938.473          38.000          25.0004
G31  20305183.130   106704556.516 9  83146450.88448  20305182.434    20305184.882          56.000          48.0004
G32  22991168.010   120819472.477 7  94145076.53346  22991167.654    22991172.582          47.000          37.0004
> 2017 10 22 01 02 30.0000000  0 11
G01  21423022.942   112578804.140 8  87723740.56247  21423021.844    21423028.246          51.000          44.0004
G03  22609460.393   118813537.061 7  92582006.55946  22609460.119    22609465.931          46.000          38.0004
G10  24359570.875   128010443.919 6  99748422.53944  24359569.633    24359576.462          40.000          24.0004
G11  22946111.201   120582665.875 7  93960546.29945  22946112.133    22946115.965          43.000          32.0004
G14  21904955.468   115111417.757 7  89697231.79046  21904954.874    21904958.161          46.000          40.0004
G22  21312857.176   111999879.193 8  87272666.79447  21312855.940    21312857.936          50.000          45.0004
G23  24531716.832   128915077.964 6 100453330.66444  24531716.770    24531720.690          40.000          26.0004
G25  24586952.165   129205328.167 7 100679492.07045  24586951.831    24586958.060          42.000          30.0004
G26  24255899.427   127465631.461 6  99323872.40244  24255898.794    24255905.957          40.000          25.0004
G31  20308307.288   106720978.365 8  83159247.14547  20308307.324    20308309.830          53.000          47.0004
G32  23004481.851   120889443.289 7  94199599.24446  23004481.962    23004487.851          46.000          36.0004
> 2017 10 22 01 03 00.0000000  0 11
G01  21425511.824   112591886.872 8  87733934.90047  21425511.155    21425517.827          51.000          44.0004
G03  22593499.052   118729663.796 7  92516650.79346  22593499.207    22593505.853          46.000          39.0004
G10  24377002.865   128102061.401 6  99819812.80043  24377002.741    24377010.135          37.000          23.0004
G11  22958621.387   120648393.277 7  94011762.43445  22958619.861    22958623.355          46.000          32.0004
G14  21915086.466   115164655.753 8  89738715.95346  21915085.805    21915089.084          49.000          40.0004
G22  21301901.314   111942306.274 8  87227804.79847  21301900.135    21301902.015          51.000          45.0004
G23  24518514.622   128845691.526 7 100399263.36844  24518514.151    24518516.693          42.000          27.0004
G25  24590860.917   129225866.764 7 100695496.20644  24590860.435    24590865.784          42.000          28.0004
G26  24238872.710   127376157.375 6  99254152.38944  24238871.622    24238879.832          38.000          25.0004
G31  20311545.149   106737991.133 9  83172503.86148  20311544.742    20311547.253          54.000          48.0004
G32  23017808.786   120959473.391 7  94254168.15546  23017808.680    23017814.674          45.000          37.0004
> 2017 10 22 01 03 30.0000000  0 11
G01  21428112.583   112605557.358 8  87744587.21447  21428112.785    21428119.127          50.000          43.0004
G03  22577562.557   118645911.921 7  92451389.59946  22577562.565    22577568.064          47.000          39.0004
G10  24394471.996   128193855.384 6  99891340.57044  24394472.135    24394479.427          39.000          26.0004
G11  22971196.061   120714471.001 7  94063251.54345  22971193.724    22971197.874          46.000          32.0004
G14  21925237.393   115217998.450 8  89780281.69446  21925236.468    21925239.792          49.000          40.0004
G22  21290994.078   111884988.091 8  87183141.30247  21290992.928    21290994.826          51.000          45.0004
G23  24505324.469   128776383.669 6 100345257.30244  24505323.575    24505327.838          41.000          26.0004
G25  24594873.512   129246956.971 6 100711930.16544  24594872.072    24594876.984          39.000          24.0004
G26  24221852.175   127286712.045 6  99184454.76744  24221850.904    24221859.305          40.000          26.0004
G31  20314894.119   106755593.157 9  83186219.74048  20314894.221    20314896.783          55.000          48.0004
G32  23031146.608   121029562.141 7  94308782.75846  23031146.038    23031151.588          46.000          36.0004
> 2017 10 22 01 04 00.0000000  0 11
G01  21430825.557   112619814.898 8  87755696.97747  21430825.903    21430832.357          51.000          44.0004
G03  22561647.208   118562283.345 7  92386224.49046  22561647.414    22561654.255          45.000          38.0004
G10  24411975.324   128285824.941 6  99963005.21644  24411973.862    24411977.643          40.000          24.0004
G11  22983836.349   120780896.470 7  94115011.63445  22983833.993    22983837.709          45.000          32.0004
G14  21935407.722   115271445.053 8  89821928.39846  21935406.996    21935410.207          49.000          39.0004
G22  21280135.683   111827926.906 8  87138678.05647  21280134.546    21280136.392          51.000          45.0004
G23  24492151.992   128707154.515 7 100291312.50544  24492151.272    24492153.324          43.000          27.0004
G25  24598986.269   129268598.728 5 100728793.88042  24598985.224    24598992.538          35.000          16.0004
G26  24204838.101   127197298.531 6  99114781.96844  24204837.142    24204844.842          40.000          25.0004
G31  20318355.998   106773783.368 9  83200393.94548  20318355.727    20318358.288          55.000          48.0004
G32  23044495.219   121099709.052 7  94363442.69846  23044494.667    23044500.089          45.000          36.0004
> 2017 10 22 01 04 30.0000000  0 11
G01  21433649.992   112634658.795 8  87767263.64447  21433650.410    21433657.041          50.000          43.0004
G03  22545757.172   118478779.938 7  92321156.92846  22545757.224    22545763.436          45.000          39.0004
G10  24429506.560   128377969.367 6 100034805.99544  24429507.006    24429516.154          38.000          26.0004
G11  22996540.095   120847666.724 7  94167040.37645  22996540.040    22996543.941          44.000          32.0004
G14  21945597.504   115324995.134 8  89863655.73746  21945597.144    21945600.699          48.000          39.0004
G22  21269326.391   111771124.424 8  87094416.41047  21269325.193    21269327.271          51.000          45.0004
G23  24478991.938   128638003.586 6 100237428.71644  24478990.217    24478994.677          41.000          26.0004
G25  24603212.271   129290791.849 6 100746087.20343  24603210.624    24603217.190          39.000          18.0004
G26  24187828.772   127107919.940 6  99045136.35444  24187828.374    24187836.649          39.000          26.0004
G31  20321928.945   106792560.458 9  83215025.46848  20321928.903    20321931.430          54.000          48.0004
G32  23057854.613   121169913.720 7  94418147.62846  23057854.158    23057859.937          46.000          36.0004
> 2017 10 22 01 05 00.0000000  0 11
G01  21436585.463   112650088.085 7  87779286.46447  21436586.547    21436593.210          47.000          44.0004
G03  22529891.561   118395403.407 7  92256188.23046  22529891.794    22529897.694          46.000          39.0004
G10  24447077.155   128470287.340 6 100106742.14344  24447075.862    24447081.357          41.000          24.0004
G11  23009309.792   120914778.433 7  94219335.16645  23009310.769    23009315.418          43.000          32.0004
G14  21955807.953   115378647.321 8  89905462.64146  21955806.726    21955810.279          50.000          39.0004
G22  21258567.100   111714582.324 8  87050357.63447  21258565.783    21258567.508          51.000          45.0004
G23  24465846.917   128568930.648 6 100183605.68444  24465846.836    24465850.869          40.000          27.0004
G25  24607542.825   129313535.716 7 100763809.73743  24607542.214    24607547.404          43.000          23.0004
G26  24170827.182   127018579.054 6  98975520.11944  24170826.641    24170834.757          38.000          25.0004
G31  20325613.546   106811923.102 9  83230113.25548  20325613.459    20325616.009          54.000          48.0004
G32  23071224.637   121240175.349 7  94472896.96345  23071224.184    23071229.832          46.000          35.0004
> 2017 10 22 01 05 30.0000000  0 11
G01  21439632.819   112666102.188 8  87791764.97047  21439634.107    21439640.595          49.000          43.0004
G03  22514049.678   118312155.681 7  92191319.94646  22514049.720    22514056.388          46.000          38.0004
G10  24464674.753   128562778.127 6 100178812.83144  24464676.100    24464683.369          38.000          26.0004
G11  23022146.478   120982228.709 7  94271893.77945  23022146.665    23022150.219          45.000          32.0004
G14  21966036.638   115432401.599 7  89947349.08646  21966035.873    21966039.503          47.000          39.0004
G22  21247857.552   111658302.662 8  87006503.36947  21247856.139    21247857.928          51.000          45.0004
G23  24452718.354   128499935.926 6 100129843.57544  24452718.909    24452720.982          40.000          27.0004
G25  24611977.040   129336830.274 7 100781961.38344  24611976.336    24611980.609          43.000          28.0004
G26  24153835.959   126929279.163 6  98905935.84944  24153834.062    24153842.047          39.000          26.0004
G31  20329409.411   106831870.397 9  83245656.62348  20329409.288    20329411.805          54.000          48.0004
G32  23084605.239   121310493.631 7  94527690.43846  23084605.659    23084611.483          46.000          36.0004
> 2017 10 22 01 06 00.0000000  0 11
G01  21442792.105   112682700.184 8  87804698.47347  21442792.855    21442798.979          51.000          44.0004
G03  22498233.892   118229038.720 7  92126553.52446  22498233.358    22498239.752          46.000          38.0004
G10  24482308.569   128655440.821 6 100251017.54043  24482307.898    24482313.173          38.000          23.0004
G11  23035045.749   121050014.677 7  94324713.98045  23035045.882    23035049.726          44.000          32.0004
G14  21976285.315   115486256.946 7  89989314.29746  21976284.243    21976287.788          47.000          40.0004
G22  21237198.098   111602287.387 8  86962855.12447  21237196.831    21237198.428          51.000          45.0004
G23  24439603.931   128431019.132 7 100076142.22444  24439602.630    24439606.931          42.000          27.0004
G25  24616516.122   129360675.300 7 100800541.97644  24616514.428    24616518.688          43.000          29.0004
G26  24136850.479   126840023.268 6  98836385.81944  24136848.552    24136856.669          41.000          25.0004
G31  20333316.110   106852400.832 9  83261654.38347  20333316.047    20333318.607          54.000          47.0004
G32  23097996.886   121380868.050 7  94582527.65645  23097997.102    23098002.329          44.000          35.0004
> 2017 10 22 01 06 30.0000000  0 11
G01  21446060.717   112699881.239 8  87818086.31347  21446061.962    21446068.463          48.000          44.0004
G03  22482442.050   118146054.240 7  92061890.37446  22482442.012    22482447.832          46.000          39.0004
G10  24499975.733   128748274.272 6 100323355.29444  24499975.287    24499983.183          40.000          27.0004
G11  23048010.195   121118133.136 7  94377793.25245  23048008.573    23048012.804          44.000          32.0004
G14  21986552.122   115540212.532 8  90031357.61246  21986551.646    21986555.162          48.000          39.0004
G22  21226589.171   111546538.299 8  86919414.29747  21226587.836    21226589.903          51.000          45.0004
G23  24426504.180   128362179.599 6 100022501.04544  24426503.650    24426506.874          41.000          27.0004
G25  24621157.113   129385070.381 6 100819551.16744  24621154.603    24621161.551          38.000          25.0004
G26  24119875.423   126750814.342 6  98766872.40544  24119872.876    24119880.870          39.000          26.0004
G31  20337333.641   106873512.751 8  83278105.24348  20337333.559    20337336.019          53.000          48.0004
G32  23111399.392   121451298.056 7  94637408.17745  23111399.350    23111405.046          46.000          35.0004
> 2017 10 22 01 07 00.0000000  0 11
G01  21449440.675   112717644.391 8  87831927.72747  21449442.007    21449448.605          48.000          44.0004
G03  22466675.025   118063204.162 7  91997331.94346  22466675.626    22466682.249          46.000          38.0004
G10  24517674.359   128841277.574 7 100395825.42543  24517673.767    24517678.433          42.000          23.0004
G11  23061036.218   121186580.762 7  94431129.03545  23061033.431    23061037.334          46.000          32.0004
G14  21996839.376   115594267.494 8  90073478.36946  21996838.038    21996841.487          49.000          39.0004
G22  21216031.350   111491057.476 8  86876182.49847  21216030.247    21216032.053          52.000          45.0004
G23  24413419.239   128293417.882 7  99968920.55344  24413418.982    24413422.343          42.000          28.0004
G25  24625899.538   129410015.323 6 100838988.67143  24625898.266    24625908.052          38.000          23.0004
G26  24102905.337   126661655.387 6  98697397.93044  24102906.624    24102914.402          39.000          26.0004
G31  20341461.417   106895204.715 9  83295008.09048  20341461.404    20341463.874          54.000          48.0004
G32  23124812.312   121521783.126 7  94692331.61346  23124812.485    23124818.628          46.000          36.0004
> 2017 10 22 01 07 30.0000000  0 11
G01  21452931.647   112735988.847 8  87846222.11247  21452932.836    21452939.486          50.000          43.0004
G03  22450936.507   117980490.413 7  91932879.75946  22450936.281    22450941.904          47.000          39.0004
G10  24535398.772   128934449.796 5 100468427.09544  24535400.153    24535410.532          34.000          24.0004
G11  23074123.415   121255355.037 7  94484719.37145  23074120.914    23074124.320          45.000          32.0004
G14  22007143.566   115648421.405 8  90115676.22546  22007143.236    22007146.612          49.000          39.0004
G22  21205525.030   111435846.568 8  86833161.04047  21205523.981    21205525.849          51.000          45.0004
G23  24400349.161   128224733.652 7  99915400.38344  24400348.207    24400352.553          42.000          28.0004
G25  24630750.400   129435509.632 5 100858854.35542  24630748.131    24630754.388          35.000          16.0004
G26  24085949.734   126572549.602 6  98627964.87344  24085949.811    24085958.752          39.000          26.0004
G31  20345699.819   106917475.834 9  83312362.22448  20345699.441    20345701.896          55.000          48.0004
G32  23138235.310   121592322.858 7  94747297.65546  23138235.635    23138241.183          45.000          36.0004
> 2017 10 22 01 08 00.0000000  0 11
G01  21456533.003   112754913.604 8  87860968.68747  21456534.140    21456540.777          50.000          44.0004
G03  22435221.696   117897914.851 7  91868535.22846  22435221.969    22435228.327          47.000          39.0004
G10  24553163.523   129027789.785 6 100541159.62643  24553163.798    24553170.737          37.000          22.0004
G11  23087271.499   121324452.715 7  94538561.68945  23087269.426    23087273.966          46.000          32.0004
G14  22017468.115   115702673.242 8  90157950.40046  22017466.927    22017470.412          49.000          39.0004
G22  21195071.086   111380907.843 8  86790351.65647  21195069.659    21195071.294          51.000          46.0004
G23  24387294.643   128156126.564 7  99861940.37044  24387293.257    24387295.732          42.000          27.0004
G25  24635709.732   129461552.828 7 100879147.82543  24635708.550    24635710.261          43.000          19.0004
G26  24069006.310   126483499.959 6  98558575.57644  24069005.371    24069012.892          39.000          27.0004
G31  20350047.855   106940324.763 9  83330166.60347  20350047.422    20350049.917          55.000          47.0004
G32  23151668.826   121662916.667 7  94802305.82245  23151669.166    23151675.218          46.000          35.0004
> 2017 10 22 01 08 30.0000000  0 11
G01  21460245.103   112774417.627 7  87876166.63447  21460245.849    21460252.243          47.000          43.0004
G03  22419535.488   117815479.251 7  91804299.79146  22419535.320    22419541.749          45.000          39.0004
G10  24570957.076   129121296.606 6 100614022.07444  24570957.606    24570963.756          37.000          24.0004
G11  23100480.426   121393870.597 7  94592653.51645  23100479.370    23100483.354          44.000          32.0004
G14  22027810.382   115757022.706 8  90200300.63646  22027809.334    22027812.677          49.000          39.0004
G22  21184668.468   111326242.746 8  86747755.49347  21184667.217    21184668.816          51.000          45.0004
G23  24374254.009   128087596.509 6  99808540.33544  24374252.245    24374256.152          41.000          28.0004
G25  24640769.195   129488144.376 6 100899868.65644  24640768.820    24640774.331          41.000          24.0004
G26  24052071.860   126394509.380 6  98489232.34744  24052070.043    24052077.495          40.000          26.0004
G31  20354505.295   106963749.518 9  83348419.67348  20354504.988    20354507.459          54.000          48.0004
G32  23165113.527   121733564.044 7  94857355.73245  23165113.356    23165118.115          46.000          35.0004
> 2017 10 22 01 09 00.0000000  0 11
G01  21464066.711   112794500.057 8  87891815.29647  21464067.678    21464073.879          50.000          44.0004
G03  22403874.683   117733185.650 7  91740174.98046  22403875.070    22403880.914          45.000          38.0004
G10  24588783.831   129214969.248 6 100687013.75843  24588783.160    24588790.709          38.000          23.0004
G11  23113748.399   121463605.638 7  94646992.47445  23113749.512    23113753.211          44.000          31.0004
G14  22038170.843   115811468.753 8  90242726.14346  22038169.979    22038173.351          49.000          39.0004
G22  21174318.465   111271853.554 8  86705374.32747  21174317.173    21174318.982          52.000          45.0004
G23  24361226.060   128019143.157 7  99755200.11544  24361226.049    24361228.524          43.000          27.0004
G25  24645936.971   129515284.031 7 100921016.51944  24645935.372    24645939.721          43.000          26.0004
G26  24035146.461   126305581.177 6  98419937.63944  24035147.199    24035156.041          38.000          26.0004
G31  20359072.200   106987748.786 9  83367120.41347  20359071.850    20359074.378          55.000          47.0004
G32  23178566.751   121804264.628 7  94912447.09546  23178566.757    23178573.229          45.000          36.0004
> 2017 10 22 01 09 30.0000000  0 11
G01  21467998.777   112815159.660 8  87907913.70947  21467999.042    21468005.307          50.000          43.0004
G03  22388242.963   117651035.743 7  91676162.13646  22388242.418    22388248.670          45.000          38.0004
G10  24606642.187   129308806.616 6 100760133.76644  24606641.507    24606647.584          40.000          25.0004
G11  23127078.908   121533654.582 7  94701576.05045  23127079.577    23127083.151          44.000          32.0004
G14  22048549.935   115866010.564 8  90285226.26746  22048549.175    22048552.382          49.000          39.0004
G22  21164021.237   111217741.904 8  86663209.42347  21164020.010    21164021.890          52.000          45.0004
G23  24348213.768   127950766.316 6  99701919.46744  24348213.389    24348216.978          41.000          27.0004
G25  24651196.499   129542971.259 5 100942590.89643  24651196.084    24651209.267          34.000          21.0004
G26  24018236.113   126216718.140 6  98350693.74144  24018237.371    24018245.124          38.000          26.0004
G31  20363748.048   107012321.096 9  83386267.67748  20363747.798    20363750.289          55.000          48.0004
G32  23192031.073   121875017.748 7  94967579.40945  23192031.352    23192035.598          45.000          35.0004
> 2017 10 22 01 10 00.0000000  0 11
G01  21472039.800   112836395.672 8  87924461.27647  21472040.045    21472046.397          51.000          43.0004
G03  22372637.254   117569031.736 7  91612263.00846  22372637.464    22372643.528          45.000          38.0004
G10  24624531.222   129402807.890 7 100833381.50043  24624528.792    24624534.254          42.000          23.0004
G11  23140466.364   121604014.725 7  94756402.09945  23140468.236    23140472.685          43.000          31.0004
G14  22058947.184   115920647.717 7  90327800.68946  22058946.127    22058949.135          47.000          39.0004
G22  21153777.123   111163910.027 8  86621262.52847  21153776.062    21153777.783          52.000          46.0004
G23  24335217.005   127882465.859 7  99648698.36544  24335217.048    24335221.248          42.000          28.0004
G25  24656573.767   129571205.712 6 100964591.70144  24656572.917    24656582.327          36.000          25.0004
G26  24001341.149   126127923.599 6  98281503.26544  24001340.772    24001349.736          39.000          27.0004
G31  20368533.137   107037464.947 9  83405860.30448  20368532.569    20368534.964          55.000          48.0004
G32  23205505.051   121945823.156 7  95022752.45746  23205504.657    23205510.976          46.000          36.0004
> 2017 10 22 01 10 30.0000000  0 11
G01  21476189.395   112858206.916 8  87941457.07447  21476190.328    21476196.870          49.000          44.0004
G03  22357060.184   117487175.405 7  91548478.92846  22357060.735    22357066.552          45.000          38.0004
G10  24642445.869   129496971.867 6 100906756.00943  24642445.779    24642453.355          37.000          23.0004
G11  23153913.131   121674682.743 7  94811468.05245  23153916.372    23153919.946          42.000          31.0004
G14  22069362.118   115975379.524 8  90370448.87246  22069361.306    22069364.547          49.000          39.0004
G22  21143586.795   111110359.535 8  86579534.90047  21143585.751    21143587.626          52.000          46.0004
G23  24322236.882   127814241.804 7  99595536.78244  24322235.346    24322237.037          44.000          28.0004
G25  24662052.219   129599986.575 6 100987018.35844  24662050.880    24662057.187          41.000          25.0004
G26  23984457.480   126039200.528 6  98212368.42444  23984456.774    23984464.767          40.000          26.0004
G31  20373426.140   107063178.894 9  83425897.15748  20373425.772    20373428.157          55.000          48.0004
G32  23218989.458   122016680.401 7  95077965.89545  23218988.927    23218993.355          46.000          35.0004
> 2017 10 22 01 11 00.0000000  0 11
G01  21480449.609   112880592.274 8  87958900.22847  21480450.195    21480456.438          49.000          44.0004
G03  22341511.952   117405468.643 7  91484811.40246  22341512.308    22341518.807          45.000          38.0004
G10  24660396.833   129591297.460 6 100980256.48343  24660395.987    24660403.342          39.000          23.0004
G11  23167418.835   121745655.771 7  94866771.68245  23167421.693    23167426.105          43.000          31.0004
G14  22079795.101   116030205.353 8  90413170.31446  22079794.249    22079797.390          48.000          38.0004
G22  21133450.425   111057092.270 8  86538027.96447  21133449.202    21133451.281          52.000          46.0004
G23  24309265.713   127746093.893 6  99542434.52444  24309265.582    24309269.726          41.000          28.0004
G25  24667632.856   129629313.318 7 101009870.46043  24667632.201    24667635.418          44.000          23.0004
G26  23967589.499   125950551.968 6  98143291.66944  23967587.766    23967594.857          40.000          26.0004
G31  20378427.473   107089461.292 9  83446376.96447  20378427.130    20378429.563          55.000          47.0004
G32  23232483.411   122087588.962 7  95133219.32346  23232482.363    23232487.789          45.000          36.0004
> 2017 10 22 01 11 30.0000000  0 11
G01  21484818.522   112903550.869 8  87976790.06347  21484818.965    21484825.344          50.000          44.0004
G03  22325993.679   117323913.671 7  91421262.12246  22325993.259    22325998.806          47.000          39.0004
G10  24678376.728   129685783.917 6 101053882.24844  24678376.112    24678384.166          37.000          24.0004
G11  23180983.303   121816930.406 6  94922310.29945  23180984.594    23180989.038          41.000          31.0004
G14  22090245.885   116085124.400 8  90455964.39846  22090244.875    22090248.156          49.000          38.0004
G22  21123368.587   111004110.628 8  86496743.59147  21123367.256    21123368.940          52.000          46.0004
G23  24296314.275   127678022.141 7  99489391.67744  24296313.313    24296317.111          43.000          29.0004
G25  24673313.595   129659185.767 5 101033147.79543  24673314.640    24673321.766          35.000          21.0004
G26  23950732.074   125861981.249 6  98074275.55244  23950734.016    23950742.340          39.000          28.0004
G31  20383536.568   107116311.117 9  83467298.91047  20383536.534    20383538.879          56.000          47.0004
G32  23245985.024   122158548.619 7  95188512.55345  23245984.731    23245990.289          46.000          35.0004
> 2017 10 22 01 12 00.0000000  0 11
G01  21489295.459   112927081.194 8  87995125.40747  21489296.401    21489303.139          49.000          44.0004
G03  22310502.982   117242512.035 7  91357832.31646  22310502.861    22310508.916          47.000          40.0004
G10  24696388.094   129780429.772 6 101127632.39144  24696388.289    24696392.741          39.000          26.0004
G11  23194602.554   121888503.551 6  94978081.59145  23194605.102    23194608.693          41.000          31.0004
G14  22100713.697   116140135.829 8  90498830.46846  22100713.302    22100716.610          48.000          38.0004
G22  21113340.818   110951416.104 8  86455682.95047  21113339.738    21113341.580          51.000          46.0004
G23  24283372.546   127610026.007 6  99436407.69144  24283372.480    24283375.863          41.000          27.0004
G25  24679104.915   129689602.942 6 101056849.45044  24679103.537    24679111.415          37.000          24.0004
G26  23933894.473   125773491.093 6  98005322.25644  23933894.419    23933901.829          40.000          27.0004
G31  20388753.754   107143726.086 9  83488661.23748  20388753.457    20388755.717          55.000          48.0004
G32  23259498.918   122229558.595 7  95243845.00745  23259498.522    23259502.875          47.000          35.0004
> 2017 10 22 01 12 30.0000000  0 11
G01  21493881.221   112951182.307 8  88013905.50847  21493882.546    21493889.435          49.000          43.0004
G03  22295042.602   117161265.904 7  91294523.68846  22295042.337    22295048.250          47.000          40.0004
G10  24714429.018   129875234.384 6 101201505.98543  24714427.917    24714433.178          39.000          23.0004
G11  23208279.883   121960372.269 6  95034083.16045  23208280.841    23208285.765          41.000          31.0004
G14  22111200.284   116195239.470 7  90541768.39146  22111199.064    22111202.292          47.000          39.0004
G22  21103368.520   110899010.519 8  86414847.46347  21103367.288    21103369.165          52.000          46.0004
G23  24270450.962   127542105.335 7  99383482.54944  24270449.864    24270451.346          44.000          28.0004
G25  24684998.438   129720564.247 7 101080975.17344  24684997.517    24685003.177          45.000          28.0004
G26  23917070.484   125685084.772 6  97936434.28644  23917071.023    23917079.435          39.000          27.0004
G31  20394077.773   107171704.744 9  83510462.80447  20394077.627    20394079.908          55.000          47.0004
G32  23273020.808   122300618.635 7  95299216.47145  23273019.797    23273026.294          46.000          35.0004
> 2017 10 22 01 13 00.0000000  0 11
G01  21498575.465   112975852.956 8  88033129.40047  21498577.313    21498584.163          49.000          43.0004
G03  22279611.565   117080177.190 7  91231337.72246  22279611.522    22279617.367          47.000          41.0004
G10  24732496.724   129970196.231 6 101275502.30744  24732496.922    24732506.061          37.000          24.0004
G11  23222012.778   122032533.265 7  95090312.49445  23222013.066    23222017.165          43.000          31.0004
G14  22121702.831   116250434.159 8  90584777.24846  22121702.305    22121705.650          48.000          38.0004
G22  21093451.470   110846895.922 8  86374238.70647  21093450.234    21093452.028          52.000          46.0004
G23  24257538.844   127474260.047 7  99330616.17244  24257537.734    24257541.688          43.000          29.0004
G25  24690993.853   129752069.074 6 101105524.43044  24690992.699    24690998.622          40.000          27.0004
G26  23900264.594   125596765.399 6  97867614.01644  23900264.033    23900271.374          40.000          27.0004
G31  20399508.751   107200245.512 9  83532702.37747  20399508.718    20399511.019          55.000          47.0004
G32  23286552.558   122371728.278 7  95354626.60045  23286552.316    23286556.201          47.000          34.0004
> 2017 10 22 01 13 30.0000000  0 11
G01  21503379.176   113001091.948 8  88052796.16847  21503380.422    21503386.873          49.000          44.0004
G03  22264211.572   116999247.916 8  91168275.97746  22264211.543    22264217.314          48.000          41.0004
G10  24750597.770   130065314.668 6 101349620.56844  24750598.807    24750606.445          37.000          26.0004
G11  23235800.824   122104983.715 7  95146767.36845  23235800.053    23235803.328          43.000          31.0004
G14  22132224.670   116305719.574 8  90627856.81746  22132222.867    22132226.110          49.000          38.0004
G22  21083589.565   110795074.461 8  86333858.38447  21083588.789    21083590.647          51.000          46.0004
G23  24244641.158   127406490.131 7  99277808.54244  24244641.909    24244644.263          42.000          28.0004
G25  24697088.302   129784116.918 5 101130496.78343  24697087.844    24697095.529          35.000          23.0004
G26  23883476.148   125508536.070 6  97798863.96444  23883474.653    23883483.269          40.000          28.0004
G31  20405046.392   107229346.781 8  83555378.70648  20405046.472    20405048.792          53.000          48.0004
G32  23300091.952   122442887.201 7  95410075.10645  23300092.527    23300098.911          44.000          35.0004
> 2017 10 22 01 14 00.0000000  0 11
G01  21508291.021   113026898.090 8  88072904.86447  21508291.178    21508297.538          51.000          43.0004
G03  22248841.531   116918480.003 7  91105339.98046  22248841.608    22248847.113          46.000          40.0004
G10  24768728.486   130160588.379 6 101423859.81443  24768729.728    24768729.713          39.000          19.0004
G11  23249641.236   122177720.239 7  95203445.18445  23249641.571    23249645.026          43.000          31.0004
G14  22142761.056   116361095.134 8  90671006.61446  22142760.072    22142763.938          48.000          39.0004
G22  21073784.966   110743548.034 8  86293707.95247  21073783.565    21073785.384          52.000          46.0004
G23  24231761.509   127338795.317 7  99225059.44544  24231760.561    24231762.975          43.000          29.0004
G25  24703291.495   129816706.909 6 101155891.60143  24703289.842    24703297.659          40.000          20.0004
G26  23866702.616   125420399.894 6  97730186.43644  23866703.674    23866711.224          40.000          28.0004
G31  20410690.462   107259006.838 9  83578490.45947  20410690.501    20410692.941          54.000          47.0004
G32  23313643.592   122514094.904 7  95465561.63845  23313643.280    23313648.240          45.000          34.0004
> 2017 10 22 01 14 30.0000000  0 11
G01  21513310.068   113053270.032 8  88093454.43247  21513309.337    21513316.056          48.000          43.0004
G03  22233502.538   116837875.405 8  91042531.23646  22233502.627    22233509.040          48.000          39.0004
G10  24786889.690   130256016.283 6 101498219.22444  24786888.068    24786897.045          40.000          25.0004
G11  23263536.096   122250739.760 7  95260343.49645  23263535.978    23263540.114          42.000          30.0004
G14  22153316.513   116416560.086 8  90714226.06546  22153315.167    22153318.451          48.000          38.0004
G22  21064035.798   110692318.117 8  86253788.55847  21064034.902    21064036.940          52.000          46.0004
G23  24218891.536   127271175.278 7  99172368.61344  24218890.523    24218895.626          43.000          28.0004
G25  24709596.874   129849838.188 7 101181708.24444  24709596.673    24709602.324          43.000          26.0004
G26  23849950.454   125332359.836 7  97661583.86344  23849949.499    23849957.228          42.000          28.0004
G31  20416440.394   107289224.045 8  83602036.35447  20416440.674    20416443.023          53.000          47.0004
G32  23327201.969   122585350.993 7  95521085.85845  23327202.518    23327208.924          45.000          35.0004
> 2017 10 22 01 15 00.0000000  0 11
G01  21518436.540   113080206.548 8  88114443.92247  21518435.242    21518441.849          51.000          43.0004
G03  22218196.325   116757436.162 8  90979851.34346  22218196.159    22218201.767          48.000          40.0004
G10  24805075.338   130351597.358 5 101572697.97343  24805075.051    24805077.466          35.000          23.0004
G11  23277484.708   122324039.268 7  95317459.99345  23277485.296    23277488.568          42.000          31.0004
G14  22163886.520   116472113.673 7  90757514.58946  22163886.119    22163889.789          47.000          38.0004
G22  21054343.889   110641387.004 8  86214102.00947  21054343.027    21054344.833          53.000          46.0004
G23  24206040.430   127203629.777 7  99119735.85944  24206039.302    24206040.298          44.000          29.0004
G25  24716003.408   129883510.190 6 101207946.23044  24716003.554    24716010.968          40.000          27.0004
G26  23833216.671   125244419.153 6  97593058.70944  23833214.888    23833222.981          40.000          28.0004
G31  20422296.733   107319996.546 9  83626014.94847  20422296.433    20422298.761          56.000          47.0004
G32  23340771.163   122656655.100 7  95576647.50445  23340771.326    23340777.111          44.000          34.0004
> 2017 10 22 01 15 30.0000000  0 11
G01  21523669.401   113107706.342 8  88135872.33147  21523668.164    21523674.844          52.000          44.0004
G03  22202920.651   116677164.266 7  90917301.83846  22202920.839    22202926.372          47.000          40.0004
G10  24823296.192   130447330.338 6 101647295.16344  24823294.459    24823301.554          38.000          26.0004
G11  23291485.644   122397615.335 7  95374791.98245  23291485.593    23291489.551          42.000          30.0004
G14  22174475.045   116527755.418 8  90800871.78946  22174474.621    22174478.232          48.000          38.0004
G22  21044709.929   110590756.230 8  86174649.48347  21044708.409    21044710.090          52.000          46.0004
G23  24193199.168   127136158.931 7  99067161.29044  24193198.569    24193202.643          42.000          29.0004
G25  24722511.346   129917722.279 6 101234604.93543  24722511.352    24722521.117          38.000          23.0004
G26  23816501.638   125156580.879 7  97524613.34344  23816500.396    23816507.366          42.000          28.0004
G31  20428257.806   107351322.719 9  83650424.98147  20428257.617    20428259.915          54.000          47.0004
G32  23354349.951   122728006.828 7  95632246.26145  23354349.410    23354354.287          45.000          34.0004
> 2017 10 22 01 16 00.0000000  0 11
G01  21529009.309   113135768.175 8  88157738.69147  21529008.269    21529014.817          48.000          43.0004
G03  22187677.504   116597061.830 7  90854884.40146  22187677.501    22187683.893          46.000          41.0004
G10  24841540.348   130543214.489 6 101722010.13843  24841540.887    24841542.611          37.000          23.0004
G11  23305538.610   122471465.124 7  95432337.25144  23305538.729    23305542.255          44.000          29.0004
G14  22185080.487   116583484.834 7  90844297.32446  22185079.418    22185082.888          46.000          38.0004
G22  21035132.450   110540427.982 8  86135432.69247  21035131.355    21035133.001          51.000          46.0004
G23  24180376.410   127068762.379 7  99014644.64844  24180374.266    24180376.388          44.000          29.0004
G25  24729126.386   129952473.520 7 101261683.86644  24729126.301    24729132.865          42.000          24.0004
G26  23799804.323   125068848.389 6  97456250.39544  23799804.622    23799812.642          40.000          28.0004
G31  20434324.041   107383200.963 8  83675265.19148  20434323.802    20434326.145          53.000          48.0004
G32  23367935.912   122799405.906 7  95687881.91345  23367935.753    23367942.495          44.000          34.0004
> 2017 10 22 01 16 30.0000000  0 11
G01  21534455.149   113164390.473 7  88180041.77547  21534454.875    21534461.459          47.000          43.0004
G03  22172466.950   116517130.655 8  90792600.38746  22172467.193    22172472.922          49.000          41.0004
G10  24859815.838   130639248.378 6 101796841.66343  24859814.911    24859821.218          40.000          21.0004
G11  23319644.119   122545585.333 7  95490093.25845  23319643.812    23319647.396          43.000          30.0004
G14  22195701.712   116639301.246 8  90887790.63446  22195701.106    22195704.848          49.000          38.0004
G22  21025612.935   110490404.055 8  86096453.03647  21025611.933    21025613.701          51.000          47.0004
G23  24167563.511   127001439.771 7  98962185.53444  24167562.707    24167564.770          44.000          29.0004
G25  24735841.649   129987762.977 6 101289182.22643  24735841.086    24735848.000          41.000          23.0004
G26  23783132.084   124981224.445 6  97387972.02644  23783130.776    23783138.568          39.000          29.0004
G31  20440495.080   107415629.088 9  83700533.88747  20440494.684    20440497.008          55.000          47.0004
G32  23381533.046   122870851.767 7  95743554.01045  23381532.541    23381536.818          46.000          34.0004
> 2017 10 22 01 17 00.0000000  0 11
G01  21540007.339   113193572.045 8  88202780.67247  21540008.019    21540014.562          49.000          43.0004
G03  22157290.831   116437372.964 8  90730451.55846  22157290.430    22157295.715          48.000          41.0004
G10  24878118.067   130735430.915 6 101871789.19143  24878118.034    24878124.193          36.000          21.0004
G11  23333799.986   122619972.883 7  95548057.56145  23333799.345    23333802.996          42.000          30.0004
G14  22206340.216   116695204.344 7  90931351.49846  22206339.237    22206342.353          47.000          38.0004
G22  21016152.163   110440686.737 8  86057712.29247  21016151.029    21016152.800          53.000          46.0004
G23  24154767.936   126934191.225 7  98909784.20145  24154766.830    24154768.970          44.000          30.0004
G25  24742661.542   130023589.961 6 101317099.40644  24742660.052    24742665.829          41.000          25.0004
G26  23766478.499   124893712.420 7  97319780.85844  23766478.251    23766485.466          42.000          29.0004
G31  20446770.125   107448605.634 9  83726229.92447  20446769.868    20446772.264          55.000          47.0004
G32  23395135.799   122942344.175 7  95799262.39145  23395136.455    23395142.224          44.000          34.0004
> 2017 10 22 01 17 30.0000000  0 11
G01  21545666.283   113223311.314 8  88225954.14247  21545667.056    21545673.712          49.000          43.0004
G03  22142145.361   116357790.561 8  90668439.33046  22142145.639    22142151.563          48.000          40.0004
G10  24896449.737   130831761.008 6 101946851.53244  24896449.519    24896455.992          38.000          26.0004
G11  23348004.717   122694624.528 7  95606227.66945  23348004.619    23348008.527          42.000          30.0004
G14  22216993.835   116751192.927 8  90974978.97446  22216993.394    22216996.978          48.000          38.0004
G22  21006750.260   110391277.401 8  86019211.53347  21006748.671    21006750.596          53.000          46.0004
G23  24141984.150   126867016.402 7  98857440.27344  24141982.986    24141985.884          44.000          29.0004
G25  24749580.573   130059953.636 6 101345434.65644  24749578.263    24749587.322          37.000          25.0004
G26  23749846.934   124806315.203 6  97251679.17944  23749846.804    23749853.427          40.000          28.0004
G31  20453149.648   107482128.781 9  83752351.88047  20453149.087    20453151.471          54.000          47.0004
G32  23408749.246   123013882.653 7  95855006.65145  23408750.003    23408754.522          44.000          34.0004
> 2017 10 22 01 18 00.0000000  0 11
G01  21551432.147   113253607.041 8  88249561.20847  21551432.086    21551438.803          48.000          43.0004
G03  22127034.867   116278385.642 8  90606565.40346  22127034.938    22127041.331          48.000          41.0004
G10  24914808.191   130928237.649 6 102022028.12443  24914806.762    24914814.096          37.000          19.0004
G11  23362258.737   122769537.008 6  95664600.99445  23362259.957    23362264.736          41.000          30.0004
G14  22227664.966   116807266.769 7  91018672.89346  22227663.934    22227667.198          47.000          38.0004
G22  20997406.435   110342178.128 8  85980952.37647  20997405.341    20997407.172          51.000          46.0004
G23  24129212.214   126799915.004 7  98805153.56044  24129213.466    24129216.060          43.000          29.0004
G25  24756602.231   130096852.982 6 101374187.41244  24756601.453    24756607.517          41.000          25.0004
G26  23733237.459   124719036.185 6  97183669.59144  23733237.958    23733246.061          41.000          29.0004
G31  20459632.572   107516196.875 8  83778898.47148  20459632.021    20459634.373          53.000          48.0004
G32  23422371.391   123085466.995 7  95910786.66445  23422371.168    23422377.388          44.000          34.0004
> 2017 10 22 01 18 30.0000000  0 11
G01  21557304.394   113284457.792 8  88273600.73947  21557303.031    21557309.473          52.000          43.0004
G03  22111959.454   116199160.255 8  90544831.37046  22111959.799    22111965.227          48.000          41.0004
G10  24933195.536   131024859.597 6 102097317.96243  24933194.523    24933202.437          38.000          23.0004
G11  23376565.029   122844707.371 7  95723175.28145  23376564.676    23376569.141          43.000          30.0004
G14  22238350.983   116863425.307 7  91062432.80046  22238350.499    22238353.827          47.000          38.0004
G22  20988122.703   110293390.828 8  85942936.32747  20988121.375    20988123.227          52.000          46.0004
G23  24116459.076   126732886.984 7  98752924.01545  24116459.129    24116461.044          44.000          30.0004
G25  24763723.832   130134287.234 6 101403357.06543  24763723.850    24763727.612          40.000          22.0004
G26  23716654.106   124631878.443 6  97115754.49344  23716652.395    23716660.085          41.000          29.0004
G31  20466218.180   107550807.728 9  83805867.98847  20466218.205    20466220.566          55.000          47.0004
G32  23436002.204   123157096.816 7  95966602.11345  23436002.723    23436007.711          44.000          33.0004
> 2017 10 22 01 19 00.0000000  0 11
G01  21563281.459   113315862.050 8  88298071.57347  21563279.136    21563285.461          51.000          43.0004
G03  22096918.381   116120116.399 8  90483238.78646  22096918.169    22096923.522          48.000          41.0004
G10  24951607.379   131121625.686 6 102172720.13643  24951607.599    24951616.092          36.000          21.0004
G11  23390917.884   122920132.657 7  95781948.21245  23390917.529    23390921.296          44.000          30.0004
G14  22249053.792   116919668.088 7  91106258.35746  22249053.157    22249056.284          47.000          38.0004
G22  20978898.679   110244917.572 8  85905164.97847  20978897.345    20978899.010          52.000          46.0004
G23  24103717.521   126665932.151 7  98700751.49844  24103717.411    24103719.529          44.000          29.0004
G25  24770949.864   130172255.443 6 101432942.74343  24770948.648    24770956.073          41.000          23.0004
G26  23700091.003   124544845.063 7  97047936.34944  23700090.392    23700097.818          42.000          29.0004
G31  20472907.635   107585959.667 9  83833259.12247  20472907.451    20472909.725          54.000          47.0004
G32  23449641.382   123228771.750 7  96022452.71945  23449641.361    23449647.393          43.000          33.0004
> 2017 10 22 01 19 30.0000000  0 11
G01  21569360.601   113347818.305 8  88322972.54847  21569360.163    21569366.563          48.000          43.0004
G03  22081910.632   116041256.191 7  90421789.28646  22081910.416    22081916.743          47.000          40.0004
G10  24970050.585   131218534.922 6 102248233.90043  24970049.736    24970056.928          37.000          18.0004
G11  23405318.374   122995809.744 7  95840917.35445  23405318.656    23405322.367          43.000          30.0004
G14  22259773.066   116975994.689 7  91150149.22046  22259771.819    22259775.136          46.000          37.0004
G22  20969734.295   110196760.444 8  85867639.97147  20969733.153    20969735.041          52.000          47.0004
G23  24090991.522   126599050.380 7  98648635.86545  24090990.545    24090992.433          45.000          30.0004
G25  24778277.604   130210756.654 6 101462943.71444  24778276.083    24778283.361          39.000          25.0004
G26  23683553.091   124457939.292 6  96980217.58544  23683552.418    23683560.611          41.000          29.0004
G31  20479699.658   107621651.045 9  83861070.60647  20479699.337    20479701.568          54.000          47.0004
G32  23463288.687   123300491.524 7  96078338.26245  23463289.243    23463295.102          43.000          33.0004
> 2017 10 22 01 20 00.0000000  0 11
G01  21575544.099   113380324.982 7  88348302.44447  21575545.517    21575552.410          46.000          43.0004
G03  22066940.861   115962581.567 8  90360484.41346  22066940.803    22066945.384          49.000          41.0004
G10  24988519.881   131315586.039 6 102323857.98244  24988518.849    24988524.816          41.000          24.0004
G11  23419767.982   123071735.183 7  95900080.01545  23419767.211    23419770.704          44.000          30.0004
G14  22270507.167   117032404.205 7  91194104.69846  22270506.039    22270509.331          47.000          37.0004
G22  20960630.722   110148921.050 8  85830362.54747  20960629.629    20960631.622          52.000          46.0004
G23  24078276.426   126532241.246 7  98596576.90145  24078275.943    24078280.740          43.000          30.0004
G25  24785704.170   130249789.845 6 101493359.15144  24785703.102    24785711.080          39.000          24.0004
G26  23667039.376   124371164.148 6  96912600.63245  23667039.708    23667048.088          41.000          30.0004
G31  20486593.406   107657879.531 9  83889300.60747  20486593.357    20486595.601          54.000          47.0004
G32  23476946.272   123372255.721 7  96134258.40845  23476945.602    23476950.889          44.000          33.0004
> 2017 10 22 01 20 30.0000000  0 11
G01  21581836.668   113413380.653 8  88374060.11447  21581835.895    21581842.683          50.000          43.0004
G03  22052003.570   115884094.633 7  90299325.79846  22052004.367    22052009.935          47.000          41.0004
G10  25007009.799   131412777.790 5 102399591.98242  25007011.390    25007018.491          32.000          15.0004
G11  23434261.383   123147905.739 7  95959433.65645  23434261.346    23434265.119          42.000          30.0004
G14  22281256.928   117088896.269 7  91238124.49646  22281256.225    22281259.556          47.000          37.0004
G22  20951588.097   110101401.161 8  85793334.09047  20951586.870    20951588.780          52.000          46.0004
G23  24065578.563   126465504.888 7  98544574.61545  24065577.333    24065580.210          43.000          30.0004
G25  24793231.598   130289354.030 6 101524188.39043  24793230.794    24793237.970          38.000          20.0004
G26  23650553.726   124284522.794 7  96845087.94244  23650553.210    23650559.796          43.000          29.0004
G31  20493589.330   107694643.406 9  83917947.80147  20493589.251    20493591.514          54.000          47.0004
G32  23490609.941   123444063.876 7  96190212.82145  23490609.844    23490616.151          43.000          33.0004
> 2017 10 22 01 21 00.0000000  0 11
G01  21588233.172   113446983.692 8  88400244.30147  21588230.546    21588237.026          53.000          43.0004
G03  22037104.524   115805797.452 8  90238315.02546  22037104.231    22037110.734          48.000          41.0004
G10  25025536.523   131510109.057 7 102475434.42844  25025536.790    25025541.729          42.000          29.0004
G11  23448803.239   123224318.446 7  96018975.99545  23448802.352    23448806.455          44.000          30.0004
G14  22292023.128   117145470.338 8  91282208.19746  22292022.036    22292025.082          48.000          37.0004
G22  20942606.688   110054202.700 8  85756556.09547  20942605.464    20942607.117          51.000          46.0004
G23  24052892.607   126398840.806 7  98492628.61045  24052891.603    24052893.486          44.000          30.0004
G25  24800864.190   130329448.181 6 101555430.65743  24800862.983    24800867.853          39.000          22.0004
G26  23634091.345   124198018.404 7  96777681.99644  23634091.560    23634098.826          42.000          29.0004
G31  20500686.664   107731940.537 8  83947010.51147  20500686.643    20500688.963          53.000          47.0004
G32  23504283.076   123515915.970 7  96246201.46045  23504283.723    23504288.312          43.000          33.0004
> 2017 10 22 01 21 30.0000000  0 11
G01  21594729.969   113481132.444 8  88426853.71247  21594728.777    21594735.343          51.000          43.0004
G03  22022241.767   115727692.044 8  90177453.68946  22022241.983    22022247.034          48.000          41.0004
G10  25044082.637   131607543.758 6 102551357.87242  25044082.253    25044086.961          39.000          14.0004
G11  23463389.102   123300969.841 7  96078704.32345  23463388.642    23463392.567          43.000          30.0004
G14  22302803.870   117202125.609 7  91326355.18046  22302802.823    22302806.417          46.000          37.0004
G22  20933686.991   110007327.536 8  85720030.02147  20933685.601    20933687.071          53.000          47.0004
G23  24040219.421   126332248.833 7  98440738.81445  24040219.068    24040221.937          43.000          30.0004
G25  24808593.153   130370071.096 6 101587084.91943  24808592.291    24808599.059          39.000          23.0004
G26  23617657.708   124111654.040 7  96710385.10045  23617656.730    23617664.640          42.000          30.0004
G31  20507885.587   107769769.240 9  83976487.42947  20507885.286    20507887.525          55.000          47.0004
G32  23517964.333   123587811.467 7  96302223.93645  23517964.585    23517969.829          43.000          33.0004
> 2017 10 22 01 22 00.0000000  0 11
G01  21601330.269   113515825.561 8  88453887.31547  21601330.817    21601337.400          48.000          43.0004
G03  22007416.538   115649780.728 8  90116743.60647  22007416.640    22007421.721          49.000          42.0004
G10  25062655.176   131705150.715 5 102627415.27543  25062655.170    25062663.380          34.000          23.0004
G11  23478021.696   123377857.185 7  96138616.50444  23478019.909    23478024.241          43.000          29.0004
G14  22313600.339   117258862.028 7  91370565.37746  22313599.415    22313602.714          47.000          37.0004
G22  20924828.978   109960777.966 8  85683757.65247  20924827.579    20924829.019          53.000          47.0004
G23  24027562.100   126265729.214 7  98388905.40445  24027561.326    24027564.056          44.000          30.0004
G25  24816424.552   130411222.088 6 101619150.64043  24816422.788    24816429.047          39.000          21.0004
G26  23601251.175   124025433.056 7  96643199.99645  23601249.866    23601256.024          42.000          30.0004
G31  20515184.993   107808127.660 8  84006377.12847  20515184.600    20515186.818          53.000          47.0004
G32  23531652.622   123659750.322 7  96358280.17445  23531653.466    23531659.463          42.000          32.0004
> 2017 10 22 01 22 30.0000000  0 11
G01  21608035.672   113551061.256 8  88481343.72247  21608035.867    21608042.539          51.000          43.0004
G03  21992625.209   115572065.449 7  90056186.27746  21992626.046    21992632.781          47.000          41.0004
G10  25081256.982   131802893.791 6 102703578.72743  25081256.675    25081262.429          38.000          18.0004
G11  23492697.554   123454977.151 7  96198709.94744  23492694.821    23492699.279          45.000          29.0004
G14  22324412.301   117315678.756 7  91414838.16746  22324411.481    22324414.850          47.000          37.0004
G22  20916032.827   109914555.528 8  85647740.19247  20916031.484    20916033.078          53.000          46.0004
G23  24014917.804   126199281.535 7  98337128.05045  24014915.913    24014918.249          44.000          30.0004
G25  24824354.995   130452900.024 6 101651626.89443  24824353.400    24824360.861          38.000          19.0004
G26  23584870.093   123939358.528 6  96576128.98745  23584870.263    23584877.971          41.000          30.0004
G31  20522584.536   107847013.569 9  84036677.84847  20522584.195    20522586.591          54.000          47.0004
G32  23545351.592   123731732.093 7  96414369.88045  23545351.978    23545357.603          44.000          33.0004
> 2017 10 22 01 23 00.0000000  0 11
G01  21614845.914   113586837.823 8  88509221.57447  21614844.142    21614850.500          50.000          42.0004
G03  21977876.154   115494548.247 8  89995783.25247  21977876.232    21977881.951          48.000          42.0004
G10  25099883.121   131900771.641 6 102779847.19343  25099882.719    25099888.153          37.000          21.0004
G11  23507417.231   123532326.337 7  96258981.99844  23507414.244    23507418.291          44.000          29.0004
G14  22335238.579   117372575.320 7  91459173.16146  22335238.271    22335241.613          46.000          37.0004
G22  20907299.245   109868662.109 8  85611979.11347  20907298.154    20907299.675          52.000          47.0004
G23  24002285.827   126132905.450 7  98285406.49445  24002285.506    24002289.513          43.000          31.0004
G25  24832387.480   130495103.260 7 101684512.64144  24832386.611    24832392.436          43.000          28.0004
G26  23568519.195   123853433.482 6  96509174.46944  23568518.336    23568525.644          39.000          29.0004
G31  20530083.765   107886425.005 8  84067388.07047  20530083.912    20530086.324          52.000          47.0004
G32  23559058.972   123803756.385 7  96470492.68845  23559058.289    23559062.913          45.000          33.0004
> 2017 10 22 01 23 30.0000000  0 12
G01  21621756.098   113623153.586 8  88537519.58247  21621754.895    21621761.010          52.000          43.0004
G03  21963163.644   115417231.167 8  89935536.21347  21963163.558    21963168.781          49.000          42.0004
G10  25118532.985   131998783.191 6 102856219.87143  25118531.928    25118539.150          36.000          20.0004
G11  23522179.257   123609901.828 7  96319430.40644  23522177.153    23522180.783          45.000          29.0004
G14  22346081.680   117429551.647 7  91503570.30946  22346080.801    22346084.037          47.000          37.0004
G16  25126537.213   132040840.225 5                                                        35.000
G22  20898628.962   109823099.833 8  85576476.07447  20898627.795    20898629.459          52.000          46.0004
G23  23989667.825   126066600.842 7  98233740.63545  23989667.813    23989669.776          43.000          30.0004
G25  24840513.411   130537831.167 6 101717807.09643  24840513.595    24840523.099          36.000          22.0004
G26  23552198.211   123767661.153 7  96442338.93345  23552196.855    23552205.810          42.000          30.0004
G31  20537683.311   107926360.156 9  84098506.38147  20537683.372    20537685.733          54.000          47.0004
G32  23572771.675   123875822.964 7  96526648.46445  23572770.881    23572777.026          43.000          32.0004
> 2017 10 22 01 24 00.0000000  0 12
G01  21628766.899   113660007.003 7  88566236.54947  21628767.541    21628774.024          47.000          43.0004
G03  21948489.143   115340116.560 8  89875446.92947  21948489.108    21948494.085          48.000          42.0004
G10  25137207.569   132096927.249 6 102932695.69043  25137207.868    25137214.852          36.000          21.0004
G11  23536981.195   123687700.638 7  96380052.82144  23536981.333    23536985.570          43.000          29.0004
G14  22356938.884   117486607.150 7  91548029.16346  22356938.159    22356941.100          47.000          37.0004
G16  25107381.685   131940166.154 5 102810541.59442  25107379.553    25107383.013          35.000          13.0004
G22  20890022.337   109777870.597 8  85541232.54647  20890020.938    20890022.566          52.000          47.0004
G23  23977065.478   126000367.622 7  98182130.40545  23977064.537    23977066.111          44.000          30.0004
G25  24848748.633   130581082.510 7 101751509.44744  24848747.499    24848752.369          43.000          24.0004
G26  23535904.424   123682044.784 6  96375624.93844  23535903.907    23535911.398          41.000          29.0004
G31  20545382.224   107966816.973 9  84130031.19147  20545381.979    20545384.383          54.000          47.0004
G32  23586493.366   123947931.668 7  96582837.07845  23586493.441    23586498.543          44.000          33.0004
> 2017 10 22 01 24 30.0000000  0 11
G01  21635882.143   113697396.212 8  88595371.01447  21635882.430    21635889.147          49.000          43.0004
G03  21933852.375   115263206.287 7  89815516.88047  21933852.567    21933859.121          47.000          42.0004
G11  23551827.444   123765719.377 6  96440846.62544  23551828.263    23551831.844          40.000          29.0004
G14  22367811.235   117543740.976 8  91592549.03846  22367810.290    22367813.392          48.000          37.0004
G16  25088193.171   131839341.323 6 102731976.77842  25088192.915    25088196.853          36.000          15.0004
G22  20881479.103   109732975.889 8  85506249.69047  20881477.711    20881479.282          53.000          47.0004
G23  23964475.298   125934205.584 7  98130575.63945  23964473.835    23964476.518          44.000          31.0004
G25  24857076.059   130624856.014 6 101785618.74843  24857075.837    24857081.699          39.000          22.0004
G26  23519643.057   123596587.366 7  96309034.78545  23519642.064    23519650.855          42.000          30.0004
G31  20553179.450   108007793.121 8  84161960.66647  20553179.445    20553181.813          53.000          47.0004
G32  23600222.131   124020082.022 7  96639058.15845  23600222.334    23600228.642          43.000          32.0004
> 2017 10 22 01 25 00.0000000  0 11
G01  21643100.537   113735319.537 8  88624921.66747  21643099.429    21643105.569          50.000          43.0004
G03  21919257.202   115186502.595 8  89755747.79747  21919257.203    21919262.543          50.000          43.0004
G11  23566714.680   123843954.597 7  96501809.09544  23566714.905    23566720.025          43.000          29.0004
G14  22378698.368   117600952.614 7  91637129.54546  22378697.107    22378700.388          45.000          36.0004
G16  25068975.789   131738367.745 5 102653296.10942  25068977.859    25068983.113          34.000          16.0004
G22  20872999.902   109688418.106 8  85471529.36647  20872998.747    20873000.336          50.000          47.0004
G23  23951897.200   125868114.548 7  98079076.25245  23951896.539    23951899.734          43.000          30.0004
G25  24865506.165   130669150.471 6 101820133.88244  24865504.157    24865513.158          38.000          24.0004
G26  23503412.129   123511292.182 7  96242571.03745  23503411.872    23503418.731          42.000          30.0004
G31  20561075.753   108049286.487 8  84194293.17247  20561075.456    20561077.806          52.000          47.0004
G32  23613959.426   124092273.863 7  96695311.57345  23613959.963    23613965.941          43.000          32.0004
> 2017 10 22 01 25 30.0000000  0 11
G01  21650418.179   113773775.259 8  88654887.19147  21650417.294    21650423.619          49.000          43.0004
G03  21904700.842   115110007.621 8  89696141.37147  21904700.642    21904706.016          49.000          43.0004
G11  23581644.418   123922403.621 7  96562938.16544  23581644.088    23581647.455          43.000          29.0004
G14  22389599.803   117658242.062 8  91681770.68546  22389599.104    22389602.215          48.000          37.0004
G16  25049734.568   131637248.548 5 102574502.06842  25049735.518    25049739.839          34.000          15.0004
G22  20864585.189   109644198.664 8  85437072.68647  20864583.971    20864585.674          52.000          47.0004
G23  23939334.832   125802094.238 7  98027631.92645  23939334.214    23939336.304          44.000          31.0004
G25  24874032.679   130713964.948 6 101855054.15743  24874031.210    24874038.534          38.000          21.0004
G26  23487212.161   123426162.385 7  96176236.20945  23487211.674    23487219.069          42.000          30.0004
G31  20569069.849   108091295.540 9  84227027.51547  20569069.546    20569071.817          54.000          47.0004
G32  23627705.394   124164507.061 7  96751597.16945  23627706.159    23627711.534          43.000          32.0004
> 2017 10 22 01 26 00.0000000  0 11
G01  21657834.365   113812761.420 8  88685266.03947  21657835.463    21657842.396          49.000          43.0004
G03  21890184.398   115033723.315 8  89636699.09047  21890184.136    21890189.221          49.000          42.0004
G11  23596613.358   124001063.016 7  96624231.19544  23596612.523    23596615.757          43.000          28.0004
G14  22400516.446   117715608.468 7  91726471.79546  22400515.530    22400518.566          46.000          36.0004
G16  25030466.475   131535986.092 6 102495596.30442  25030465.006    25030469.568          37.000          14.0004
G22  20856235.598   109600319.494 8  85402881.14747  20856234.110    20856235.712          52.000          47.0004
G23  23926785.625   125736144.533 7  97976242.65145  23926783.411    23926786.961          43.000          31.0004
G25  24882661.431   130759297.624 6 101890378.51644  24882660.618    24882665.761          41.000          25.0004
G26  23471043.509   123341201.032 6  96110032.59445  23471043.407    23471050.971          41.000          30.0004
G31  20577161.686   108133817.721 9  84260161.70147  20577161.244    20577163.478          54.000          47.0004
G32  23641459.532   124236781.046 7  96807914.57045  23641459.060    23641464.491          45.000          31.0004
> 2017 10 22 01 26 30.0000000  0 11
G01  21665355.197   113852276.439 7  88716056.97347  21665355.301    21665361.565          46.000          43.0004
G03  21875707.284   114957652.016 8  89577422.79547  21875707.351    21875713.236          48.000          42.0004
G11  23611620.557   124079929.549 7  96685685.61844  23611620.175    23611624.305          42.000          29.0004
G14  22411446.713   117773051.499 7  91771232.61246  22411446.407    22411450.035          46.000          36.0004
G16  25011171.558   131434583.563 6 102416581.41542  25011170.279    25011173.821          36.000          17.0004
G22  20847950.616   109556782.764 8  85368956.44847  20847949.218    20847950.892          50.000          47.0004
G23  23914247.961   125670265.059 7  97924908.08945  23914247.737    23914249.302          44.000          31.0004
G25  24891387.319   130805147.735 7 101926105.87743  24891385.921    24891389.851          42.000          23.0004
G26  23454909.496   123256411.413 6  96043962.80045  23454908.951    23454916.704          40.000          31.0004
G31  20585350.679   108176851.130 8  84293694.24047  20585350.307    20585352.473          53.000          47.0004
G32  23655218.474   124309095.778 7  96864263.72945  23655219.781    23655225.768          43.000          32.0004
> 2017 10 22 01 27 00.0000000  0 11
G01  21672974.751   113892318.341 7  88747258.47347  21672974.938    21672981.364          47.000          43.0004
G03  21861273.106   114881795.744 8  89518314.05147  21861272.900    21861278.588          49.000          42.0004
G11  23626667.663   124159000.196 7  96747299.07644  23626666.083    23626670.626          43.000          28.0004
G14  22422392.655   117830570.842 7  91816052.87846  22422391.764    22422395.272          46.000          36.0004
G16  24991846.606   131333043.328 5 102337459.18142  24991846.387    24991851.861          35.000          16.0004
G22  20839731.197   109513589.994 8  85335299.77047  20839729.923    20839731.461          53.000          47.0004
G23  23901725.597   125604455.909 7  97873628.30245  23901723.981    23901726.678          44.000          31.0004
G25  24900205.002   130851513.638 5 101962235.28043  24900205.344    24900215.059          35.000          22.0004
G26  23438807.734   123171796.590 7  95978029.21645  23438807.298    23438814.535          43.000          31.0004
G31  20593636.363   108220393.569 8  84327623.43747  20593636.148    20593638.298          53.000          47.0004
G32  23668989.553   124381450.860 7  96920644.35145  23668989.682    23668994.080          43.000          32.0004
> 2017 10 22 01 27 30.0000000  0 11
G01  21680694.705   113932885.429 7  88778869.21647  21680694.708    21680701.134          47.000          42.0004
G03  21846879.246   114806156.751 8  89459374.62947  21846879.361    21846884.876          49.000          43.0004
G11  23641752.989   124238271.958 7  96809069.24544  23641752.014    23641755.201          42.000          28.0004
G14  22433353.081   117888165.917 7  91860932.17346  22433352.113    22433355.279          47.000          36.0004
G16  24972498.801   131231368.788 5 102258232.25842  24972498.534    24972504.203          35.000          17.0004
G22  20831577.914   109470743.185 8  85301912.67047  20831576.501    20831577.968          52.000          47.0004
G23  23889216.130   125538717.042 7  97822403.30345  23889215.200    23889217.603          45.000          31.0004
G25  24909130.586   130898394.646 7 101998765.73444  24909129.793    24909137.247          44.000          28.0004
G26  23422742.055   123087359.922 7  95912234.46545  23422740.212    23422747.612          43.000          31.0004
G31  20602018.814   108264442.949 9  84361947.65147  20602018.447    20602020.670          54.000          47.0004
G32  23682765.108   124453846.332 7  96977056.40645  23682765.625    23682771.161          43.000          32.0004
> 2017 10 22 01 28 00.0000000  0 11
G01  21688513.773   113973975.664 8  88810887.60447  21688513.718    21688520.217          49.000          42.0004
G03  21832526.838   114730736.980 8  89400606.00447  21832527.260    21832533.158          50.000          42.0004
G11  23656875.056   124317741.119 7  96870993.25144  23656873.215    23656878.730          44.000          28.0004
G14  22444326.864   117945836.271 7  91905870.13146  22444326.147    22444329.741          46.000          36.0004
G16  24953123.424   131129561.759 5 102178902.22542  24953125.829    24953130.135          34.000          16.0004
G22  20823490.361   109428244.146 8  85268796.55647  20823489.183    20823490.676          53.000          47.0004
G23  23876717.198   125473048.151 7  97771232.79645  23876717.383    23876720.153          43.000          31.0004
G25  24918149.680   130945788.646 6 102035696.33243  24918148.623    24918149.267          39.000          18.0004
G26  23406705.462   123003104.304 7  95846580.79245  23406705.830    23406713.793          42.000          31.0004
G31  20610496.971   108308997.060 9  84396665.16247  20610496.817    20610499.006          55.000          46.0004
G32  23696549.816   124526281.656 7  97033499.52045  23696549.477    23696554.730          44.000          32.0004
> 2017 10 22 01 28 30.0000000  0 11
G01  21696432.326   114015587.298 8  88843312.26247  21696432.088    21696438.521          50.000          42.0004
G03  21818217.947   114655538.764 8  89342010.04347  21818217.738    21818223.230          50.000          42.0004
G11  23672034.748   124397405.038 7  96933068.97344  23672033.516    23672037.991          43.000          28.0004
G14  22455315.351   118003581.543 7  91950866.45446  22455314.558    22455317.816          46.000          36.0004
G16  24933727.877   131027625.827 5 102099471.54243  24933727.522    24933733.528          34.000          18.0004
G22  20815469.482   109386094.963 8  85235953.06347  20815468.341    20815469.971          52.000          47.0004
G23  23864235.429   125407448.701 7  97720116.41145  23864234.875    23864237.010          43.000          31.0004
G25  24927264.199   130993694.845 6 102073025.78143  24927263.171    24927270.484          40.000          23.0004
G26  23390707.659   122919033.080 7  95781070.77745  23390707.307    23390714.885          42.000          31.0004
G31  20619070.839   108354053.821 9  84431774.34647  20619070.805    20619072.907          54.000          46.0004
G32  23710338.746   124598756.724 6  97089973.60445  23710340.516    23710346.835          41.000          32.0004
> 2017 10 22 01 29 00.0000000  0 11
G01  21704449.819   114057718.399 8  88876141.70447  21704449.587    21704455.965          49.000          43.0004
G03  21803949.296   114580564.197 7  89283588.33747  21803949.876    21803955.942          47.000          42.0004
G11  23687227.978   124477260.267 7  96995293.83344  23687229.599    23687233.609          42.000          28.0004
G14  22466318.672   118061401.234 7  91995920.75946  22466317.855    22466320.914          47.000          36.0004
G16  24914306.387   130925563.633 6 102019942.61342  24914307.426    24914310.023          37.000          16.0004
G22  20807515.751   109344297.470 8  85203383.61047  20807514.568    20807516.252          52.000          47.0004
G23  23851764.875   125341918.715 7  97669054.12845  23851764.226    23851767.570          44.000          31.0004
G25  24936477.873   131042111.639 6 102110753.16943  24936477.560    24936482.871          41.000          20.0004
G26  23374744.427   122835149.401 6  95715706.92745  23374745.299    23374753.116          41.000          31.0004
G31  20627739.646   108399611.035 9  84467273.49447  20627739.983    20627742.164          54.000          46.0004
G32  23724139.589   124671271.305 7  97146478.46145  23724140.082    23724145.290          43.000          31.0004
> 2017 10 22 01 29 30.0000000  0 11
G01  21712565.837   114100367.087 8  88909374.47547  21712565.323    21712571.670          50.000          43.0004
G03  21789726.044   114505815.580 8  89225342.71047  21789726.088    21789732.043          49.000          42.0004
G11  23702461.733   124557303.791 7  97057665.37744  23702460.877    23702465.371          42.000          27.0004
G14  22477335.297   118119295.434 7  92041033.14546  22477334.574    22477337.660          46.000          36.0004
G16  24894861.992   130823377.435 6 101940317.09842  24894860.742    24894866.869          36.000          16.0004
G22  20799629.198   109302853.446 8  85171089.59147  20799628.000    20799629.583          51.000          47.0004
G23  23839307.863   125276458.057 7  97618045.85045  23839307.705    23839309.866          45.000          31.0004
G25  24945790.163   131091037.671 7 102148877.41544  24945788.807    24945794.363          42.000          27.0004
G26  23358820.757   122751456.443 7  95650491.68545  23358819.369    23358826.691          44.000          32.0004
G31  20636503.986   108445666.726 9  84503161.06547  20636504.011    20636506.311          55.000          46.0004
G32  23737945.663   124743825.236 7  97203014.01645  23737946.200    23737951.953          42.000          31.0004
> 2017 10 22 01 30 00.0000000  0 11
G01  21720779.211   114143531.316 7  88943008.94147  21720778.911    21720785.527          47.000          43.0004
G03  21775545.016   114431294.873 8  89167274.66947  21775544.991    21775550.657          49.000          43.0004
G11  23717730.306   124637532.334 7  97120181.11944  23717729.317    23717732.349          43.000          28.0004
G14  22488366.556   118177263.225 7  92086202.87146  22488365.358    22488368.611          45.000          36.0004
G16  24875393.316   130721070.466 5 101860597.35242  24875391.172    24875395.810          35.000          13.0004
G22  20791810.549   109261764.520 8  85139072.27047  20791809.088    20791810.602          52.000          47.0004
G23  23826864.560   125211066.401 7  97567091.29445  23826864.030    23826867.510          43.000          31.0004
G25  24955192.712   131140471.702 6 102187397.27242  24955192.399    24955199.532          37.000          16.0004
G26  23342930.372   122667957.312 7  95585427.46945  23342929.535    23342936.922          42.000          31.0004
G31  20645363.060   108492218.697 8  84539435.34247  20645362.606    20645364.779          53.000          46.0004
G32  23751761.330   124816418.191 7  97259579.94645  23751761.550    23751766.016          43.000          32.0004
> 2017 10 22 01 30 30.0000000  0 11
G01  21729090.997   114187209.271 8  88977043.72747  21729090.795    21729096.899          49.000          42.0004
G03  21761408.532   114357004.428 8  89109386.05347  21761408.357    21761413.740          49.000          43.0004
G11  23733031.802   124717942.555 7  97182838.39644  23733030.136    23733034.184          43.000          28.0004
G14  22499410.560   118235304.531 7  92131429.86946  22499410.118    22499413.614          47.000          36.0004
G16  24855902.469   130618645.681 5 101780785.90443  24855900.992    24855906.616          34.000          19.0004
G22  20784059.334   109221032.968 8  85107333.42647  20784058.089    20784059.609          52.000          47.0004
G23  23814434.854   125145743.935 7  97516190.66045  23814433.745    23814436.157          44.000          31.0004
G25  24964698.869   131190412.044 7 102226312.06343  24964698.399    24964705.142          42.000          23.0004
G26  23327079.123   122584655.289 7  95520516.84445  23327077.821    23327085.586          43.000          32.0004
G31  20654315.440   108539264.451 9  84576094.40147  20654315.056    20654317.214          54.000          46.0004
G32  23765582.175   124889050.139 7  97316176.23745  23765581.283    23765588.409          43.000          31.0004
> 2017 10 22 01 31 00.0000000  0 11
G01  21737500.701   114231398.842 8  89011477.17147  21737500.021    21737506.019          50.000          43.0004
G03  21747315.362   114282946.307 8  89051678.45747  21747315.191    21747320.855          49.000          43.0004
G11  23748367.286   124798531.937 7  97245635.31344  23748366.450    23748369.573          43.000          28.0004
G14  22510470.218   118293418.895 7  92176713.80145  22510469.222    22510472.282          47.000          35.0004
G16  24836387.969   130516105.677 5 101700884.58643  24836388.531    24836392.724          34.000          18.0004
G22  20776376.505   109180660.194 8  85075874.14147  20776375.331    20776376.860          52.000          47.0004
G23  23802017.507   125080490.348 7  97465343.65945  23802017.320    23802018.746          45.000          32.0004
G25  24974296.808   131240857.371 6 102265620.05944  24974296.815    24974305.540          37.000          25.0004
G26  23311264.720   122501553.379 7  95455762.17345  23311264.050    23311271.345          43.000          31.0004
G31  20663361.531   108586801.844 9  84613136.54747  20663361.081    20663363.354          55.000          46.0004
G32  23779410.049   124961720.663 7  97372802.65445  23779410.589    23779414.725          42.000          30.0004
> 2017 10 22 01 31 30.0000000  0 11
G01  21746005.362   114276098.064 8  89046307.74947  21746005.629    21746012.299          49.000          42.0004
G03  21733266.643   114209122.726 7  88994153.63647  21733266.864    21733272.673          47.000          43.0004
G11  23763735.368   124879296.951 7  97308569.07444  23763734.843    23763739.037          42.000          28.0004
G14  22521543.073   118351605.628 7  92222054.11946  22521541.863    22521544.972          46.000          36.0004
G16  24816855.451   130413453.716 6 101620896.07142  24816855.349    24816859.492          37.000          17.0004
G22  20768762.878   109140648.124 8  85044695.92247  20768761.414    20768762.792          52.000          47.0004
G23  23789613.356   125015305.433 7  97414550.18745  23789612.118    23789615.162          45.000          31.0004
G25  24983993.607   131291806.364 6 102305320.50043  24983991.759    24983999.234          39.000          22.0004
G26  23295489.057   122418654.903 7  95391165.98445  23295488.997    23295496.373          42.000          32.0004
G31  20672500.295   108634828.620 9  84650560.02547  20672500.322    20672502.451          54.000          46.0004
G32  23793248.422   125034429.766 7  97429459.05045  23793247.475    23793253.841          44.000          32.0004
> 2017 10 22 01 32 00.0000000  0 11
G01  21754607.095   114321304.898 7  89081533.85447  21754608.063    21754614.797          46.000          42.0004
G03  21719263.291   114135535.819 8  88936813.23647  21719263.890    21719269.650          49.000          43.0004
G11  23779137.657   124960234.316 7  97371637.15444  23779137.387    23779141.142          44.000          28.0004
G14  22532629.089   118409864.299 7  92267450.49846  22532627.937    22532631.025          47.000          36.0004
G16  24797299.313   130310691.973 6 101540822.01643  24797299.674    24797305.255          38.000          19.0004
G22  20761217.858   109100998.735 8  85013800.30547  20761216.283    20761217.669          52.000          47.0004
G23  23777223.027   124950188.976 7  97363810.08345  23777221.263    23777223.330          46.000          32.0004
G25  24993784.290   131343257.237 6 102345412.20343  24993783.715    24993788.955          41.000          19.0004
G26  23279753.168   122335962.878 7  95326730.68745  23279752.916    23279760.248          42.000          32.0004
G31  20681732.481   108683342.457 9  84688363.03347  20681732.186    20681734.341          54.000          46.0004
G32  23807090.851   125107177.032 7  97486145.24745  23807089.778    23807094.315          44.000          30.0004
> 2017 10 22 01 32 30.0000000  0 11
G01  21763306.963   114367017.329 8  89117153.94147  21763307.179    21763313.290          50.000          42.0004
G03  21705306.081   114062187.858 8  88879659.01947  21705306.187    21705311.546          49.000          42.0004
G11  23794569.721   125041340.948 6  97434837.09044  23794569.877    23794574.988          41.000          27.0004
G14  22543728.182   118468195.072 7  92312903.05045  22543727.712    22543731.186          44.000          35.0004
G16  24777722.792   130207823.825 5 101460665.08143  24777724.692    24777729.350          35.000          18.0004
G22  20753741.411   109061713.768 8  84983188.66747  20753740.434    20753742.025          52.000          47.0004
G23  23764842.607   124885141.063 7  97313123.42345  23764842.641    23764845.980          44.000          32.0004
G25  25003670.819   131395208.629 6 102385893.87343  25003669.518    25003676.671          41.000          23.0004
G26  23264057.472   122253480.597 7  95262458.83545  23264057.636    23264065.174          43.000          32.0004
G31  20691056.275   108732341.261 8  84726543.93247  20691056.266    20691058.593          53.000          46.0004
G32  23820942.318   125179962.455 7  97542861.17245  23820941.679    23820947.899          45.000          32.0004
> 2017 10 22 01 33 00.0000000  0 11
G01  21772101.915   114413233.341 7  89153166.43047  21772101.463    21772107.948          47.000          42.0004
G03  21691394.092   113989081.028 8  88822692.72047  21691394.158    21691400.185          48.000          43.0004
G11  23810036.424   125122613.506 7  97498166.35644  23810036.378    23810040.609          42.000          27.0004
G14  22554842.062   118526597.526 7  92358411.46546  22554841.610    22554844.794          45.000          36.0004
G16  24758129.895   130104851.803 5 101380427.17043  24758128.723    24758135.170          35.000          21.0004
G22  20746335.922   109022795.141 8  84952862.48348  20746334.490    20746336.059          53.000          48.0004
G23  23752479.225   124820161.151 7  97262489.78645  23752477.956    23752480.710          45.000          32.0004
G25  25013651.483   131447659.165 6 102426764.36744  25013649.742    25013657.073          38.000          24.0004
G26  23248402.648   122171211.201 7  95198352.87345  23248402.377    23248409.283          42.000          32.0004
G31  20700472.653   108781822.847 8  84765101.02947  20700472.242    20700474.473          53.000          46.0004
G32  23834797.663   125252785.840 7  97599606.62945  23834797.373    23834803.471          43.000          30.0004
> 2017 10 22 01 33 30.0000000  0 11
G01  21780991.751   114459950.888 8  89189569.72247  21780991.620    21780998.182          50.000          42.0004
G03  21677529.320   113916217.588 8  88765916.05647  21677529.283    21677534.513          51.000          43.0004
G11  23825532.689   125204049.403 6  97561622.88644  23825533.017    23825537.248          41.000          27.0004
G14  22565968.885   118585071.270 7  92403975.42645  22565968.416    22565971.880          45.000          35.0004
G16  24738513.332   130001778.912 5 101300110.66143  24738515.128    24738521.247          34.000          19.0004
G22  20739000.130   108984244.692 8  84922823.18747  20738998.688    20739000.163          51.000          47.0004
G23  23740126.269   124755249.446 7  97211909.32345  23740125.063    23740126.939          44.000          31.0004
G25  25023726.061   131500607.105 6 102468022.51544  25023725.735    25023732.684          39.000          25.0004
G26  23232786.709   122089157.894 7  95134415.28145  23232787.301    23232794.747          42.000          32.0004
G31  20709979.928   108831784.812 8  84804032.44047  20709979.797    20709981.952          53.000          46.0004
G32  23848665.275   125325646.963 7  97656381.61045  23848665.219    23848669.623          45.000          32.0004
> 2017 10 22 01 34 00.0000000  0 11
G01  21789977.788   114507167.656 8  89226362.01447  21789977.149    21789983.147          50.000          42.0004
G03  21663709.412   113843599.531 8  88709330.60047  21663710.001    21663715.615          49.000          43.0004
G11  23841061.539   125285644.967 7  97625203.83144  23841060.442    23841064.789          43.000          28.0004
G14  22577110.488   118643615.488 7  92449594.29745  22577109.359    22577112.569          47.000          35.0004
G16  24718885.920   129898608.044 6 101219717.84742  24718884.490    24718887.961          38.000          17.0004
G22  20731734.326   108946064.008 8  84893072.02247  20731733.070    20731734.651          51.000          47.0004
G23  23727787.416   124690405.560 7  97161381.71645  23727786.496    23727788.958          46.000          32.0004
G25  25033896.721   131554050.918 6 102509667.10642  25033895.874    25033901.492          39.000          17.0004
G26  23217216.053   122007323.662 7  95070648.39745  23217215.329    23217222.610          43.000          33.0004
G31  20719578.519   108882224.779 8  84843336.32547  20719578.149    20719580.434          53.000          46.0004
G32  23862538.076   125398545.636 7  97713185.66845  23862536.509    23862541.962          44.000          32.0004
> 2017 10 22 01 34 30.0000000  0 11
G01  21799056.601   114554881.754 8  89263541.83547  21799056.277    21799062.790          49.000          42.0004
G03  21649938.651   113771229.214 8  88652938.20747  21649938.545    21649944.090          49.000          43.0004
G11  23856617.094   125367397.164 6  97688906.82644  23856616.669    23856622.073          41.000          28.0004
G14  22588263.541   118702230.224 7  92495268.11845  22588263.012    22588266.434          45.000          35.0004
G16  24699231.086   129795342.059 6 101139250.86143  24699229.942    24699236.745          36.000          18.0004
G22  20724539.905   108908255.051 8  84863610.51448  20724538.347    20724539.817          52.000          48.0004
G23  23715458.777   124625629.368 7  97110906.91845  23715458.678    23715461.294          46.000          32.0004
G25  25044160.816   131607989.046 7 102551696.81344  25044160.216    25044166.559          42.000          24.0004
G26  23201685.006   121925711.833 7  95007054.81645  23201684.970    23201692.866          42.000          33.0004
G31  20729267.437   108933140.538 9  84883010.95247  20729267.030    20729269.189          54.000          46.0004
G32  23876413.526   125471481.657 6  97770019.02844  23876414.396    23876419.785          41.000          29.0004
> 2017 10 22 01 35 00.0000000  0 11
G01  21808230.135   114603090.836 8  89301107.35547  21808230.095    21808236.863          49.000          42.0004
G03  21636214.738   113699108.727 8  88596740.46747  21636214.430    21636219.963          50.000          44.0004
G11  23872203.669   125449302.799 6  97752729.36344  23872203.482    23872207.835          41.000          28.0004
G14  22599431.292   118760914.982 7  92540996.50045  22599430.447    22599433.787          47.000          35.0004
G16  24679562.383   129691984.312 6 101058712.31343  24679563.933    24679568.430          37.000          19.0004
G22  20717415.774   108870819.652 8  84834440.08548  20717414.506    20717416.131          53.000          48.0004
G23  23703145.621   124560920.755 7  97060484.75445  23703145.845    23703147.170          44.000          32.0004
G25  25054518.562   131662419.703 6 102594110.31844  25054517.474    25054524.556          39.000          24.0004
G26  23186198.639   121844325.359 7  94943636.85445  23186197.346    23186204.526          44.000          32.0004
G31  20739046.142   108984529.636 9  84923054.41647  20739045.976    20739048.309          55.000          46.0004
G32  23890300.972   125544454.841 7  97826881.18645  23890302.185    23890308.809          44.000          32.0004
> 2017 10 22 01 35 30.0000000  0 11
G01  21817497.543   114651792.997 8  89339057.09647  21817498.020    21817504.473          49.000          42.0004
G03  21622538.416   113627240.540 8  88540739.33647  21622538.366    21622543.883          50.000          43.0004
G11  23887818.126   125531358.888 7  97816669.17744  23887818.164    23887822.389          42.000          27.0004
G14  22610612.047   118819669.570 7  92586779.30445  22610611.342    22610614.347          47.000          35.0004
G16  24659880.240   129588537.315 6 100978104.36043  24659878.414    24659882.154          39.000          18.0004
G22  20710363.453   108833759.668 8  84805562.19448  20710362.202    20710363.786          52.000          48.0004
G23  23690845.206   124496279.685 7  97010115.24945  23690844.604    23690847.167          45.000          33.0004
G25  25064968.131   131717341.662 6 102636906.66543  25064967.880    25064974.307          37.000          18.0004
G26  23170754.496   121763167.704 7  94880397.16345  23170753.853    23170760.762          42.000          33.0004
G31  20748915.104   109036390.003 9  84963465.10347  20748914.780    20748917.025          54.000          46.0004
G32  23904192.838   125617465.260 7  97883772.46144  23904193.668    23904198.797          43.000          28.0004
> 2017 10 22 01 36 00.0000000  0 11
G01  21826859.141   114700985.880 8  89377389.21847  21826858.919    21826865.319          48.000          42.0004
G03  21608910.827   113555626.579 8  88484936.30047  21608910.658    21608915.987          49.000          44.0004
G11  23903461.403   125613562.175 7  97880723.67044  23903460.560    23903465.412          42.000          27.0004
G14  22621806.204   118878493.812 7  92632616.38045  22621805.222    22621808.284          47.000          35.0004
G16  24640176.422   129485003.668 6 100897428.80443  24640176.848    24640182.470          36.000          20.0004
G22  20703383.084   108797076.623 9  84776978.01848  20703381.690    20703383.296          54.000          48.0004
G23  23678558.340   124431705.715 7  96959798.02045  23678557.321    23678557.903          45.000          32.0004
G25  25075514.259   131772752.949 6 102680084.38543  25075514.073    25075519.273          39.000          23.0004
G26  23155354.498   121682241.822 7  94817338.09945  23155354.091    23155361.623          43.000          33.0004
G31  20758872.913   109088719.075 8  85004241.01047  20758872.659    20758874.798          53.000          46.0004
G32  23918094.524   125690512.455 7  97940692.35145  23918095.402    23918102.456          43.000          32.0004
> 2017 10 22 01 36 30.0000000  0 11
G01  21836313.842   114750667.399 8  89416102.09547  21836313.116    21836319.607          50.000          42.0004
G03  21595331.504   113484269.238 8  88429333.22347  21595331.711    21595337.082          49.000          44.0004
G11  23919132.807   125695909.653 7  97944890.50144  23919131.553    23919135.275          42.000          27.0004
G14  22633012.897   118937387.001 7  92678507.19045  22633012.412    22633015.364          45.000          35.0004
G16  24620458.069   129381386.644 6 100816688.36143  24620457.613    24620463.554          36.000          19.0004
G22  20696474.230   108760772.369 8  84748689.00348  20696473.085    20696474.756          52.000          48.0004
G23  23666282.016   124367199.018 7  96909533.21445  23666280.752    23666283.746          45.000          32.0004
G25  25086149.033   131828651.965 5 102723642.07643  25086150.139    25086156.839          35.000          22.0004
G26  23140000.095   121601550.885 7  94754462.11345  23139998.706    23140006.062          43.000          33.0004
G31  20768919.444   109141514.463 8  85045380.28547  20768919.284    20768921.489          53.000          46.0004
G32  23932002.689   125763596.477 7  97997640.93245  23932003.103    23932006.716          43.000          30.0004
> 2017 10 22 01 37 00.0000000  0 11
G01  21845860.400   114800835.268 8  89455193.93946  21845859.778    21845866.344          49.000          41.0004
G03  21581801.919   113413170.609 8  88373931.75047  21581802.059    21581807.639          51.000          44.0004
G11  23934829.674   125778398.022 6  98009167.14644  23934828.018    23934831.997          41.000          27.0004
G14  22644232.304   118996349.230 7  92724451.78845  22644232.118    22644234.826          45.000          34.0004
G16  24600725.769   129277689.582 6 100735885.42343  24600725.474    24600732.203          37.000          21.0004
G22  20689638.229   108724848.863 8  84720696.67748  20689637.146    20689638.764          53.000          48.0004
G23  23654020.099   124302759.137 7  96859320.49145  23654019.218    23654021.362          45.000          33.0004
G25  25096881.300   131885037.118 6 102767578.52743  25096880.108    25096887.343          41.000          23.0004
G26  23124689.587   121521098.060 7  94691771.64645  23124689.330    23124695.741          44.000          33.0004
G31  20779054.320   109194774.018 9  85086881.24747  20779054.278    20779056.426          54.000          46.0004
G32  23945916.021   125836717.047 7  98054618.01845  23945916.041    23945923.225          43.000          30.0004
> 2017 10 22 01 37 30.0000000  0 11
G01  21855498.448   114851487.287 8  89494663.04846  21855498.490    21855504.938          50.000          41.0004
G03  21568322.155   113342333.008 8  88318733.66047  21568322.182    21568327.387          50.000          44.0004
G11  23950551.918   125861024.285 7  98073551.21444  23950552.016    23950556.609          42.000          27.0004
G14  22655466.195   119055379.862 7  92770449.69945  22655465.420    22655468.933          47.000          35.0004
G16  24580981.219   129173914.920 6 100655022.13643  24580979.141    24580982.006          39.000          18.0004
G22  20682875.281   108689307.603 8  84693002.20248  20682873.943    20682875.458          53.000          48.0004
G23  23641768.819   124238385.943 7  96809159.70745  23641768.852    23641770.604          45.000          33.0004
G25  25107703.210   131941906.627 6 102811892.50643  25107702.376    25107707.552          38.000          20.0004
G26  23109424.479   121440886.455 7  94629269.15445  23109424.887    23109432.831          42.000          33.0004
G31  20789277.538   109248495.099 9  85128741.83847  20789277.146    20789279.140          55.000          46.0004
G32  23959841.565   125909874.163 7  98111623.55045  23959840.143    23959843.252          45.000          31.0004
> 2017 10 22 01 38 00.0000000  0 11
G01  21865228.921   114902621.237 8  89534507.70046  21865229.054    21865235.272          49.000          41.0004
G03  21554892.126   113271758.623 8  88263740.67547  21554892.206    21554897.684          49.000          44.0004
G11  23966299.774   125943785.025 6  98138040.07344  23966299.416    23966304.948          41.000          27.0004
G14  22666712.134   119114478.673 7  92816500.71245  22666711.503    22666714.323          45.000          35.0004
G16  24561215.471   129070065.699 6 100574100.65543  24561216.090    24561220.993          37.000          20.0004
G22  20676184.998   108654150.738 8  84665607.25948  20676183.733    20676185.359          52.000          48.0004
G23  23629531.794   124174079.392 7  96759050.84045  23629531.118    23629533.645          44.000          33.0004
G25  25118616.878   131999258.750 6 102856582.53143  25118615.230    25118621.154          39.000          21.0004
G26  23094208.313   121360919.238 7  94566957.09945  23094207.894    23094215.131          44.000          33.0004
G31  20799587.459   109302675.490 9  85170960.33547  20799587.337    20799589.378          54.000          46.0004
G32  23973766.473   125983067.592 7  98168657.35145  23973765.118    23973773.035          43.000          30.0004
> 2017 10 22 01 38 30.0000000  0 11
G01  21875051.324   114954234.812 8  89574726.07546  21875050.775    21875057.183          49.000          41.0004
G03  21541512.513   113201449.654 8  88208954.50947  21541512.813    21541518.223          50.000          44.0004
G11  23982075.451   126026677.273 7  98202631.43244  23982074.786    23982078.162          43.000          27.0004
G14  22677970.885   119173645.440 7  92862604.71145  22677970.468    22677973.897          45.000          34.0004
G16  24541444.445   128966145.081 6 100493123.57043  24541441.018    24541444.646          39.000          20.0004
G22  20669568.592   108619379.609 8  84638512.88548  20669567.108    20669568.596          53.000          48.0004
G23  23617308.218   124109839.135 7  96708993.63645  23617306.520    23617309.178          46.000          33.0004
G25  25129622.147   132057091.823 6 102901647.24743  25129620.586    25129628.213          39.000          21.0004
G26  23079038.370   121281199.553 7  94504837.89545  23079037.861    23079044.841          44.000          33.0004
G31  20809984.392   109357312.881 8  85213534.93747  20809984.368    20809986.507          53.000          46.0004
G32  23987702.548   126056297.084 7  98225719.35545  23987702.927    23987706.689          43.000          30.0004
> 2017 10 22 01 39 00.0000000  0 11
G01  21884963.776   115006325.840 8  89615316.47946  21884963.236    21884969.896          50.000          41.0004
G03  21528184.493   113131408.449 8  88154376.98947  21528184.492    21528189.814          50.000          44.0004
G11  23997874.213   126109698.234 6  98267323.04844  23997872.126    23997876.972          41.000          26.0004
G14  22689243.296   119232880.239 7  92908761.68645  22689242.507    22689246.195          47.000          34.0004
G16  24521652.412   128862155.920 6 100412093.10343  24521651.452    24521656.876          38.000          18.0004
G22  20663025.474   108584996.031 8  84611720.50148  20663024.105    20663025.532          53.000          48.0004
G23  23605096.231   124045665.012 7  96658987.94545  23605095.172    23605096.394          46.000          33.0004
G25  25140718.469   132115404.075 6 102947085.41043  25140718.377    25140723.921          39.000          23.0004
G26  23063915.875   121201730.588 7  94442914.08645  23063915.114    23063923.158          42.000          33.0004
G31  20820468.112   109412404.928 9  85256463.81647  20820468.033    20820470.165          54.000          45.0004
G32  24001644.192   126129562.841 7  98282809.49445  24001644.516    24001650.008          44.000          30.0004
> 2017 10 22 01 39 30.0000000  0 11
G01  21894966.847   115058891.700 8  89656276.89047  21894966.515    21894972.592          48.000          42.0004
G03  21514907.020   113061636.922 8  88100009.59547  21514907.272    21514912.685          51.000          44.0004
G11  24013695.536   126192844.203 7  98332112.07344  24013695.217    24013698.570          42.000          26.0004
G14  22700528.109   119292182.233 7  92954971.06045  22700527.427    22700530.157          45.000          34.0004
G16  24501849.881   128758101.217 6 100331011.57343  24501851.614    24501855.868          38.000          19.0004
G22  20656556.444   108551001.441 8  84585231.21848  20656555.135    20656556.580          53.000          48.0004
G23  23592896.496   123981557.021 7  96609033.76545  23592896.062    23592897.244          47.000          33.0004
G25  25151907.418   132174193.491 6 102992895.39143  25151904.848    25151911.514          39.000          22.0004
G26  23048841.566   121122515.203 7  94381187.85545  23048841.020    23048848.690          43.000          33.0004
G31  20831037.819   109467948.735 9  85299744.72147  20831037.666    20831039.807          55.000          46.0004
G32  24015591.184   126202864.238 7  98339927.47544  24015591.579    24015596.534          42.000          28.0004
> 2017 10 22 01 40 00.0000000  0 11
G01  21905058.909   115111930.459 8  89697605.80246  21905059.328    21905065.548          49.000          41.0004
G03  21501682.046   112992137.677 8  88045854.37947  21501682.050    21501687.221          50.000          44.0004
G11  24029540.009   126276112.287 6  98396996.29344  24029539.737    24029544.404          41.000          26.0004
G14  22711826.050   119351551.614 7  93001232.91945  22711825.098    22711828.248          45.000          34.0004
G16  24482038.614   128653983.957 6 100249881.27543  24482037.661    24482042.878          38.000          19.0004
G22  20650161.901   108517398.438 8  84559047.07548  20650160.592    20650162.115          52.000          48.0004
G23  23580708.508   123917515.216 7  96559131.18245  23580707.509    23580711.247          44.000          33.0004
G25  25163182.591   132233458.772 6 103039076.11342  25163181.483    25163189.250          36.000          17.0004
G26  23033815.491   121043556.892 7  94319661.94445  23033815.318    23033822.668          43.000          33.0004
G31  20841693.138   109523942.282 9  85343376.06547  20841692.847    20841695.071          54.000          45.0004
G32  24029548.459   126276201.620 7  98397073.49545  24029548.837    24029554.868          42.000          30.0004
> 2017 10 22 01 40 30.0000000  0 11
G01  21915241.951   115165439.673 7  89739301.29246  21915241.890    21915248.334          47.000          41.0004
G03  21488508.852   112922912.839 8  87991912.96747  21488509.027    21488514.553          49.000          44.0004
G11  24045409.486   126359499.461 7  98461973.27444  24045408.476    24045412.509          42.000          26.0004
G14  22723135.615   119410987.763 7  93047546.82545  22723135.116    22723138.481          44.000          33.0004
G16  24462212.371   128549807.218 5 100168704.64243  24462214.191    24462218.936          35.000          20.0004
G22  20643841.799   108484188.217 8  84533168.99148  20643840.952    20643842.437          52.000          48.0004
G23  23568536.426   123853539.174 7  96509279.78845  23568535.035    23568535.607          47.000          33.0004
G25  25174551.166   132293197.802 6 103085626.03443  25174550.064    25174556.316          38.000          19.0004
G26  23018840.215   120964858.657 7  94258338.67845  23018839.737    23018847.480          43.000          34.0004
G31  20852433.790   109580383.020 9  85387355.87847  20852433.180    20852435.380          54.000          46.0004
G32  24043509.328   126349574.759 7  98454247.33644  24043510.044    24043515.231          42.000          28.0004
> 2017 10 22 01 41 00.0000000  0 11
G01  21925514.144   115219417.011 7  89781361.56447  21925513.346    21925519.713          47.000          42.0004
G03  21475388.481   112853964.665 8  87938187.15147  21475388.546    21475393.810          50.000          45.0004
G11  24061298.081   126443002.849 6  98527040.83144  24061297.998    24061303.193          40.000          26.0004
G14  22734458.467   119470490.813 7  93093912.84545  22734458.051    22734461.667          46.000          34.0004
G16  24442378.501   128445574.305 6 100087484.21443  24442379.391    24442383.395          37.000          19.0004
G22  20637597.221   108451372.621 8  84507598.41548  20637596.152    20637597.786          52.000          48.0004
G23  23556373.216   123789628.878 7  96459479.63945  23556372.016    23556375.079          45.000          33.0004
G25  25186009.344   132353408.783 6 103132543.72143  25186008.723    25186013.497          40.000          23.0004
G26  23003916.076   120886423.653 7  94197220.54245  23003914.786    23003921.651          44.000          34.0004
G31  20863258.325   109637268.619 8  85431682.33347  20863258.070    20863260.327          53.000          46.0004
G32  24057479.519   126422983.478 6  98511448.95345  24057480.017    24057484.687          40.000          30.0004
> 2017 10 22 01 41 30.0000000  0 11
G01  21935873.727   115273860.039 8  89823784.69746  21935873.479    21935879.578          51.000          41.0004
G03  21462320.960   112785295.313 8  87884678.58247  21462321.114    21462326.541          50.000          45.0004
G11  24077210.840   126526619.050 6  98592196.26944  24077210.284    24077215.025          41.000          26.0004
G14  22745794.207   119530060.105 7  93140330.48345  22745793.661    22745797.094          43.000          34.0004
G16  24422535.201   128341287.617 6 100006221.96943  24422535.424    24422539.377          39.000          22.0004
G22  20631428.165   108418953.171 8  84482336.51848  20631427.120    20631428.532          53.000          48.0004
G23  23544224.723   123725784.130 7  96409730.56345  23544223.818    23544225.665          46.000          33.0004
G25  25197555.424   132414089.889 6 103179827.73443  25197555.398    25197561.307          38.000          21.0004
G26  22989038.749   120808254.871 7  94136309.86045  22989038.784    22989046.452          43.000          33.0004
G31  20874167.505   109694596.490 9  85476353.41747  20874167.188    20874169.428          54.000          46.0004
G32  24071456.048   126496427.676 7  98568678.17844  24071456.180    24071460.987          44.000          29.0004
> 2017 10 22 01 42 00.0000000  0 11
G01  21946322.002   115328766.432 8  89866568.90146  21946321.925    21946328.222          49.000          41.0004
G03  21449306.911   112716907.079 8  87831389.08147  21449307.246    21449312.688          49.000          45.0004
G11  24093143.106   126610344.842 7  98657437.14244  24093143.155    24093147.350          42.000          26.0004
G14  22757143.092   119589695.715 7  93186799.78945  22757142.321    22757144.768          45.000          34.0004
G16  24402679.278   128236950.675 6  99924920.44743  24402678.833    24402683.350          37.000          19.0004
G22  20625334.959   108386931.900 8  84457384.89348  20625333.607    20625335.039          52.000          48.0004
G23  23532086.535   123662005.058 7  96360032.63845  23532085.651    23532087.077          43.000          32.0004
G25  25209191.936   132475239.355 6 103227476.67543  25209191.180    25209198.354          38.000          21.0004
G26  22974216.546   120730355.578 7  94075609.15945  22974215.761    22974222.454          45.000          34.0004
G31  20885160.067   109752364.205 9  85521367.24047  20885160.035    20885162.263          54.000          46.0004
G32  24085436.835   126569907.243 6  98625934.97944  24085438.159    24085443.555          41.000          29.0004
> 2017 10 22 01 42 30.0000000  0 11
G01  21956857.878   115384133.698 8  89909712.22746  21956857.975    21956864.326          50.000          41.0004
G03  21436347.343   112648802.148 8  87778320.32247  21436347.275    21436352.735          50.000          44.0004
G11  24109096.420   126694177.235 7  98722761.04544  24109095.185    24109099.113          43.000          25.0004
G14  22768503.499   119649397.119 7  93233320.39245  22768502.772    22768506.715          44.000          34.0004
G16  24382817.191   128132566.578 6  99843582.33643  24382816.059    24382819.946          39.000          21.0004
G22  20619317.405   108355310.252 8  84432744.65748  20619316.250    20619317.644          53.000          48.0004
G23  23519963.616   123598291.068 7  96310385.44345  23519962.848    23519965.297          47.000          34.0004
G25  25220917.030   132536855.109 6 103275488.98743  25220915.559    25220923.732          37.000          21.0004
G26  22959443.696   120652728.739 7  94015120.75745  22959443.450    22959450.816          43.000          34.0004
G31  20896236.375   109810569.452 9  85566721.98847  20896236.157    20896238.244          54.000          46.0004
G32  24099429.641   126643422.023 7  98683219.22345  24099429.375    24099433.898          44.000          30.0004
> 2017 10 22 01 43 00.0000000  0 11
G01  21967481.594   115439959.514 8  89953212.86846  21967481.157    21967487.249          48.000          41.0004
G03  21423441.648   112580982.803 8  87725474.09547  21423441.731    21423446.940          50.000          44.0004
G11  24125068.953   126778113.122 6  98788165.61944  24125068.154    24125072.491          40.000          26.0004
G14  22779877.668   119709164.025 7  93279891.99745  22779876.615    22779879.337          45.000          34.0004
G16  24362943.595   128028138.001 6  99762209.44143  24362944.112    24362948.952          39.000          20.0004
G22  20613376.222   108324089.822 8  84408417.06748  20613375.159    20613376.608          53.000          48.0004
G23  23507850.784   123534642.157 7  96260788.96345  23507849.192    23507852.375          45.000          33.0004
G25  25232729.049   132598935.439 5 103323863.23043  25232728.941    25232736.206          35.000          18.0004
G26  22944725.109   120575377.389 7  93954847.02045  22944723.955    22944731.326          44.000          34.0004
G31  20907395.120   109869209.631 9  85612415.65247  20907394.866    20907397.096          54.000          45.0004
G32  24113423.650   126716972.028 6  98740530.88844  24113423.488    24113429.339          40.000          29.0004
> 2017 10 22 01 43 30.0000000  0 11
G01  21978192.073   115496241.516 8  89997068.97846  21978191.517    21978197.348          49.000          41.0004
G03  21410590.444   112513451.387 8  87672852.21847  21410590.888    21410596.303          51.000          45.0004
G11  24141058.382   126862149.411 6  98853648.42444  24141058.566    24141063.526          40.000          25.0004
G14  22791263.246   119768996.440 7  93326514.68845  22791262.015    22791264.912          47.000          33.0004
G16  24343060.513   127923668.237 6  99680804.53843  24343062.118    24343066.366          36.000          21.0004
G22  20607511.926   108293272.416 8  84384403.51748  20607510.859    20607512.224          52.000          48.0004
G23  23495749.797   123471058.380 7  96211243.24345  23495750.056    23495751.250          44.000          33.0004
G25  25244632.674   132661478.363 6 103372598.03043  25244631.606    25244637.413          38.000          20.0004
G26  22930058.429   120498305.025 7  93894790.67145  22930058.295    22930064.660          45.000          34.0004
G31  20918636.941   109928282.397 8  85658446.38447  20918636.199    20918638.190          53.000          45.0004
G32  24127426.245   126790557.180 6  98797869.95044  24127426.484    24127432.658          41.000          29.0004
> 2017 10 22 01 44 00.0000000  0 11
G01  21988986.953   115552977.220 8  90041278.62346  21988987.441    21988994.011          48.000          41.0004
G03  21397795.372   112446210.119 8  87620456.44147  21397795.609    21397800.730          49.000          45.0004
G11  24157069.304   126946283.166 6  98919207.15444  24157068.915    24157073.460          40.000          25.0004
G14  22802661.456   119828894.235 7  93373188.28145  22802660.178    22802663.346          46.000          33.0004
G16  24323175.867   127819160.585 6  99599370.01543  24323176.782    24323182.162          38.000          21.0004
G22  20601724.574   108262859.769 8  84360705.36248  20601723.462    20601724.860          52.000          49.0004
G23  23483663.302   123407539.727 7  96161748.24645  23483663.157    23483665.666          44.000          33.0004
G25  25256622.150   132724481.947 6 103421691.80743  25256621.589    25256626.949          40.000          21.0004
G26  22915445.773   120421514.511 7  93834953.95845  22915444.516    22915451.547          43.000          34.0004
G31  20929959.692   109987785.126 9  85704812.15847  20929959.045    20929961.273          54.000          45.0004
G32  24141435.316   126864177.363 6  98855236.32944  24141436.299    24141441.184          40.000          28.0004
> 2017 10 22 01 44 30.0000000  0 11
G01  21999869.932   115610164.060 8  90085839.80246  21999870.111    21999876.236          49.000          41.0004
G03  21385055.407   112379261.118 8  87568288.39947  21385055.366    21385060.769          51.000          45.0004
G11  24173098.887   127030511.061 6  98984839.27044  24173097.846    24173101.580          41.000          25.0004
G14  22814071.199   119888856.974 7  93419912.51545  22814070.625    22814073.776          44.000          33.0004
G16  24303284.721   127714617.702 6  99517908.09843  24303284.283    24303285.046          41.000          20.0004
G22  20596015.225   108232853.432 8  84337323.80948  20596013.549    20596014.833          53.000          48.0004
G23  23471588.101   123344085.886 7  96112303.76245  23471588.058    23471589.674          43.000          34.0004
G25  25268698.169   132787944.181 6 103471142.91743  25268697.368    25268703.171          38.000          22.0004
G26  22900887.511   120345008.852 7  93775339.20945  22900886.510    22900893.428          44.000          34.0004
G31  20941363.579   110047715.019 8  85751510.79147  20941363.396    20941365.474          53.000          46.0004
G32  24155452.390   126937832.370 7  98912629.82645  24155452.902    24155458.418          42.000          30.0004
> 2017 10 22 01 45 00.0000000  0 10
G01  22010837.909   115667799.688 8  90130750.68746  22010837.659    22010843.930          49.000          41.0004
G03  21372371.523   112312606.782 8  87516349.96347  21372371.418    21372376.594          49.000          45.0004
G11  24189142.793   127114830.223 6  99050542.49144  24189142.633    24189147.749          40.000          25.0004
G14  22825494.469   119948884.562 7  93466687.25945  22825493.430    22825497.134          45.000          34.0004
G16  24283383.009   127610042.954 6  99436421.37143  24283381.282    24283387.513          39.000          20.0004
G22  20590382.675   108203255.166 8  84314260.24148  20590381.088    20590382.435          53.000          48.0004
G23  23459526.390   123280696.533 7  96062909.50445  23459525.752    23459527.011          45.000          33.0004
G26  22886382.574   120268791.299 7  93715948.94945  22886382.613    22886389.325          44.000          34.0004
G31  20952848.081   110108070.029 8  85798540.68247  20952848.520    20952850.626          53.000          45.0004
G32  24169476.049   127011522.324 7  98970050.55944  24169475.418    24169479.542          42.000          28.0004
> 2017 10 22 01 45 30.0000000  0 10
G01  22021890.443   115725881.544 8  90176009.26746  22021890.183    22021896.628          48.000          41.0004
G03  21359743.651   112246249.265 8  87464642.82447  21359744.000    21359749.333          51.000          45.0004
G11  24205206.914   127199237.349 6  99116314.25944  24205205.230    24205208.812          41.000          25.0004
G14  22836928.665   120008976.726 7  93513512.32545  22836928.693    22836931.733          45.000          33.0004
G16  24263477.604   127505439.367 6  99354912.10143  24263474.782    24263479.453          38.000          20.0004
G22  20584828.249   108174066.842 9  84291516.10748  20584826.693    20584828.083          54.000          48.0004
G23  23447476.138   123217371.661 7  96013565.52845  23447475.223    23447477.297          46.000          34.0004
G26  22871934.123   120192864.773 7  93656785.47645  22871933.505    22871940.940          44.000          34.0004
G31  20964414.392   110168847.527 9  85845899.78047  20964414.167    20964416.151          54.000          45.0004
G32  24183505.529   127085247.004 7  99027498.33944  24183504.093    24183510.906          42.000          29.0004
> 2017 10 22 01 46 00.0000000  0 10
G01  22033027.280   115784407.284 7  90221613.75446  22033027.543    22033033.673          45.000          40.0004
G03  21347173.578   112180191.003 8  87413168.86747  21347173.802    21347178.824          52.000          45.0004
G11  24221283.476   127283729.599 6  99182152.32844  24221282.775    24221287.877          39.000          25.0004
G14  22848375.596   120069133.413 7  93560387.66645  22848375.922    22848378.902          43.000          33.0004
G16  24243567.241   127400810.173 6  99273382.93343  24243568.286    24243571.356          39.000          23.0004
G22  20579351.913   108145289.830 9  84269092.47348  20579350.617    20579352.027          54.000          48.0004
G23  23435436.477   123154111.445 7  95964271.92745  23435436.790    23435438.308          45.000          34.0004
G26  22857541.791   120117232.608 7  93597851.36245  22857541.785    22857548.631          45.000          35.0004
G31  20976060.077   110230045.065 8  85893586.18247  20976059.635    20976061.707          53.000          45.0004
G32  24197542.002   127159006.487 7  99084973.26044  24197541.873    24197545.604          43.000          29.0004
> 2017 10 22 01 46 30.0000000  0 10
G01  22044248.925   115843374.235 7  90267562.03546  22044248.487    22044254.729          46.000          40.0004
G03  21334660.411   112114434.082 8  87361929.71947  21334660.362    21334665.661          51.000          45.0004
G11  24237377.913   127368303.816 6  99248054.29244  24237377.224    24237381.368          39.000          25.0004
G14  22859836.300   120129354.264 7  93607313.01045  22859835.797    22859839.203          45.000          33.0004
G16  24223652.107   127296158.140 6  99191835.95843  24223652.406    24223656.096          39.000          21.0004
G22  20573954.741   108116925.748 8  84246990.60048  20573953.140    20573954.492          53.000          48.0004
G23  23423411.227   123090915.671 7  95915028.51745  23423410.941    23423412.946          45.000          34.0004
G26  22843207.045   120041897.667 7  93539148.85545  22843206.027    22843213.290          45.000          34.0004
G31  20987785.205   110291660.129 9  85941597.93047  20987784.588    20987786.594          54.000          45.0004
G32  24211583.486   127232800.620 7  99142475.16644  24211582.403    24211589.587          42.000          28.0004
> 2017 10 22 01 47 00.0000000  0 10
G01  22055553.329   115902779.962 8  90313852.21346  22055552.968    22055558.995          49.000          41.0004
G03  21322205.269   112048980.859 8  87310927.21747  21322205.241    21322210.330          52.000          45.0004
G11  24253487.412   127452957.064 6  99314017.86644  24253486.298    24253490.596          41.000          24.0004
G14  22871308.507   120189639.528 7  93654288.54545  22871307.372    22871310.540          45.000          33.0004
G16  24203734.777   127191486.920 6  99110274.03543  24203733.716    24203737.325          38.000          20.0004
G22  20568635.081   108088976.243 8  84225211.78248  20568634.435    20568635.834          53.000          48.0004
G23  23411397.531   123027783.959 7  95865835.04445  23411398.162    23411399.989          47.000          34.0004
G26  22828927.659   119966863.101 7  93480680.41145  22828927.323    22828933.896          44.000          34.0004
G31  20999589.365   110353690.057 9  85989932.93947  20999588.527    20999590.469          54.000          45.0004
G32  24225629.947   127306629.299 6  99200004.02444  24225631.968    24225636.679          40.000          28.0004
> 2017 10 22 01 47 30.0000000  0 10
G01  22066940.382   115962621.770 8  90360482.20246  22066940.405    22066946.870          49.000          40.0004
G03  21309808.006   111983833.456 8  87260163.02047  21309808.092    21309813.116          52.000          45.0004
G11  24269612.353   127537686.003 7  99380040.38044  24269610.018    24269614.430          42.000          25.0004
G14  22882792.776   120249988.456 7  93701313.67845  22882791.969    22882795.204          46.000          33.0004
G16  24183812.763   127086799.474 6  99028699.46843  24183811.937    24183817.534          40.000          22.0004
G22  20563396.120   108061442.609 9  84203757.00548  20563394.979    20563396.348          54.000          49.0004
G23  23399395.668   122964716.110 7  95816691.32145  23399395.609    23399397.562          46.000          34.0004
G26  22814707.063   119892131.895 7  93422448.33345  22814706.604    22814713.592          45.000          35.0004
G31  21011470.826   110416132.281 8  86038589.22147  21011470.892    21011472.885          53.000          44.0004
G32  24239687.364   127380492.448 6  99257559.74144  24239688.227    24239694.161          41.000          29.0004
> 2017 10 22 01 48 00.0000000  0 10
G01  22078410.568   116022897.230 7  90407450.09046  22078410.478    22078417.070          46.000          40.0004
G03  21297469.551   111918994.216 8  87209638.95847  21297469.483    21297474.846          51.000          45.0004
G11  24285744.562   127622487.913 6  99446119.76744  24285746.220    24285752.088          38.000          24.0004
G14  22894288.169   120310401.141 7  93748388.49545  22894287.642    22894290.930          45.000          33.0004
G16  24163889.883   126982098.947 6  98947114.65243  24163889.292    24163892.017          40.000          22.0004
G22  20558236.385   108034326.835 8  84182627.84548  20558235.016    20558236.445          53.000          49.0004
G23  23387408.466   122901712.525 7  95767597.67145  23387407.427    23387408.441          46.000          34.0004
G26  22800543.625   119817707.174 7  93364455.09745  22800543.819    22800550.884          44.000          35.0004
G31  21023431.253   110478984.222 8  86087564.76647  21023431.175    21023433.125          52.000          45.0004
G32  24253750.981   127454390.123 7  99315142.32144  24253749.160    24253754.994          42.000          27.0004
> 2017 10 22 01 48 30.0000000  0 10
G01  22089963.836   116083603.718 8  90454753.86246  22089962.583    22089968.927          48.000          41.0004
G03  21285190.075   111854465.413 8  87159356.78247  21285189.943    21285195.125          52.000          45.0004
G11  24301897.294   127707359.350 6  99512253.34844  24301897.008    24301901.355          39.000          24.0004
G14  22905797.884   120370877.366 7  93795512.83445  22905796.652    22905798.913          43.000          32.0004
G16  24143961.210   126877388.185 6  98865521.95843  24143962.772    24143966.545          38.000          23.0004
G22  20553156.193   108007630.387 8  84161825.42148  20553154.815    20553156.181          53.000          49.0004
G23  23375430.340   122838772.830 7  95718553.81245  23375429.943    23375431.694          47.000          34.0004
G26  22786440.364   119743591.966 7  93306703.01845  22786440.092    22786446.787          45.000          35.0004
G31  21035469.372   110542243.456 8  86136857.68547  21035469.036    21035471.092          51.000          45.0004
G32  24267820.581   127528322.182 7  99372751.71244  24267820.150    24267825.691          43.000          29.0004
> 2017 10 22 01 49 00.0000000  0 10
G01  22101596.294   116144738.677 8  90502391.48446  22101595.972    22101602.395          49.000          40.0004
G03  21272970.020   111790249.253 8  87109318.23947  21272969.916    21272975.454          51.000          45.0004
G11  24318061.825   127792297.555 6  99578438.96244  24318060.944    24318065.575          38.000          25.0004
G14  22917316.809   120431416.759 7  93842686.38445  22917316.039    22917320.228          44.000          33.0004
G16  24124038.599   126772670.593 6  98783923.86843  24124035.995    24124039.715          39.000          22.0004
G22  20548156.031   107981354.712 8  84141350.87248  20548154.771    20548156.106          53.000          49.0004
G23  23363465.775   122775897.093 7  95669559.75645  23363465.629    23363466.347          45.000          35.0004
G26  22772397.021   119669789.294 7  93249194.47145  22772396.392    22772403.040          46.000          35.0004
G31  21047583.972   110605907.797 8  86186466.26747  21047583.861    21047586.021          53.000          45.0004
G32  24281894.284   127602288.598 6  99430387.86044  24281893.250    24281898.651          41.000          26.0004
> 2017 10 22 01 49 30.0000000  0 10
G01  22113310.440   116206299.469 7  90550360.94146  22113310.785    22113317.286          47.000          40.0004
G03  21260809.937   111726348.015 8  87059525.08147  21260810.010    21260815.232          51.000          46.0004
G11  24334235.762   127877299.431 6  99644674.16544  24334235.788    24334240.823          40.000          24.0004
G14  22928849.947   120492019.574 7  93889909.35745  22928848.897    22928851.635          43.000          33.0004
G16  24104107.484   126667949.304 6  98702322.93743  24104108.137    24104111.746          38.000          22.0004
G22  20543236.530   107955501.870 9  84121205.80548  20543235.170    20543236.454          54.000          48.0004
G23  23351513.289   122713084.878 7  95620615.21645  23351512.060    23351513.814          47.000          34.0004
G26  22758412.723   119596302.241 7  93191931.86845  22758412.135    22758418.972          43.000          35.0004
G31  21059775.359   110669973.949 9  86236387.93947  21059775.202    21059777.366          54.000          45.0004
G32  24295974.918   127676289.308 6  99488050.76444  24295975.977    24295982.437          39.000          28.0004
> 2017 10 22 01 50 00.0000000  0 10
G01  22125105.645   116268283.578 7  90598660.25046  22125105.823    22125112.538          47.000          40.0004
G03  21248710.609   111662764.016 8  87009979.12347  21248710.481    21248715.539          52.000          45.0004
G11  24350421.889   127962361.869 6  99710956.56344  24350422.358    24350427.685          39.000          24.0004
G14  22940394.242   120552685.786 7  93937181.72645  22940393.053    22940396.591          45.000          32.0004
G16  24084179.403   126563227.716 6  98620721.78143  24084179.123    24084184.879          39.000          22.0004
G22  20538397.383   107930073.235 8  84101391.28948  20538396.183    20538397.530          52.000          48.0004
G23  23339572.736   122650336.224 7  95571720.23145  23339571.397    23339573.161          47.000          34.0004
G26  22744488.427   119523133.846 7  93134917.57745  22744488.369    22744495.034          45.000          35.0004
G31  21072043.488   110734439.724 8  86286621.01547  21072042.745    21072044.876          53.000          45.0004
G32  24310062.851   127750324.348 6  99545740.37444  24310063.942    24310069.467          40.000          26.0004
> 2017 10 22 01 50 30.0000000  0 10
G01  22136981.764   116330688.282 8  90647287.28946  22136980.999    22136987.361          49.000          39.0004
G03  21236671.157   111599499.426 8  86960682.06347  21236671.482    21236676.779          51.000          46.0004
G11  24366621.246   128047482.072 6  99777284.00744  24366620.973    24366625.412          41.000          25.0004
G14  22951951.099   120613414.713 7  93984502.96845  22951949.191    22951952.131          46.000          32.0004
G16  24064253.915   126458508.965 6  98539122.80143  24064251.927    24064256.502          38.000          22.0004
G22  20533639.341   107905070.032 9  84081908.28848  20533638.115    20533639.564          54.000          49.0004
G23  23327643.940   122587651.284 7  95522874.83945  23327643.581    23327643.962          46.000          35.0004
G26  22730627.620   119450287.304 7  93078154.06845  22730626.338    22730632.959          46.000          35.0004
G31  21084385.893   110799302.630 9  86337163.53947  21084385.569    21084387.862          54.000          45.0004
G32  24324159.296   127824393.485 6  99603456.60644  24324159.480    24324164.658          41.000          26.0004
> 2017 10 22 01 51 00.0000000  0 10
G01  22148935.643   116393510.962 7  90696240.02946  22148935.780    22148942.289          47.000          40.0004
G03  21224694.105   111536556.527 8  86911635.67147  21224693.946    21224699.207          52.000          46.0004
G11  24382829.321   128132656.900 6  99843653.98344  24382829.561    24382833.218          39.000          24.0004
G14  22963518.814   120674206.320 7  94031873.05545  22963517.683    22963521.223          44.000          32.0004
G16  24044327.608   126353795.920 6  98457528.27943  24044326.554    24044329.614          38.000          23.0004
G22  20528962.827   107880494.093 8  84062758.21248  20528961.625    20528962.888          52.000          49.0004
G23  23315725.677   122525029.711 7  95474078.86245  23315725.794    23315728.681          46.000          35.0004
G26  22716825.152   119377765.235 7  93021643.40745  22716825.505    22716832.576          44.000          35.0004
G31  21096803.462   110864559.976 8  86388013.42847  21096803.796    21096805.860          52.000          45.0004
G32  24338261.407   127898496.929 6  99661199.52444  24338260.546    24338265.859          41.000          27.0004
> 2017 10 22 01 51 30.0000000  0 10
G01  22160970.531   116456748.883 8  90745516.33546  22160969.973    22160976.319          48.000          40.0004
G03  21212778.107   111473937.519 8  86862841.65047  21212777.967    21212783.019          51.000          45.0004
G11  24399046.647   128217883.136 6  99910064.04043  24399046.522    24399051.618          40.000          23.0004
G14  22975099.258   120735060.690 7  94079292.03145  22975097.570    22975101.104          43.000          32.0004
G16  24024402.650   126249091.787 6  98375940.75543  24024401.712    24024406.035          40.000          22.0004
G22  20524367.570   107856346.774 8  84043942.13248  20524366.436    20524367.867          53.000          49.0004
G23  23303822.934   122462471.496 7  95425332.23145  23303822.096    23303823.536          47.000          35.0004
G26  22703087.587   119305570.762 7  92965388.00245  22703087.236    22703094.161          45.000          35.0004
G31  21109295.982   110930209.084 8  86439168.58947  21109296.405    21109298.417          51.000          45.0004
G32  24352367.826   127972634.443 6  99718968.97644  24352367.705    24352374.360          39.000          27.0004
> 2017 10 22 01 52 00.0000000  0 10
G01  22173082.399   116520399.560 8  90795114.26546  22173081.909    22173088.354          49.000          40.0004
G03  21200924.237   111411644.764 8  86814301.86947  21200923.977    21200929.118          52.000          46.0004
G11  24415276.194   128303158.028 6  99976511.99944  24415274.463    24415278.631          41.000          24.0004
G14  22986690.189   120795977.639 7  94126759.80245  22986689.974    22986693.411          44.000          32.0004
G16  24004480.494   126144400.195 6  98294362.95243  24004479.455    24004482.585          40.000          23.0004
G22  20519854.510   107832629.772 8  84025461.35848  20519853.206    20519854.697          53.000          49.0004
G23  23291930.729   122399976.293 7  95376634.72745  23291929.859    23291930.818          47.000          35.0004
G26  22689411.591   119233707.079 7  92909390.35345  22689412.283    22689418.783          44.000          35.0004
G31  21121862.872   110996247.474 8  86490627.07747  21121863.029    21121865.117          53.000          45.0004
G32  24366484.394   128046806.119 6  99776765.11844  24366483.387    24366489.100          40.000          27.0004
> 2017 10 22 01 52 30.0000000  0 10
G01  22185271.863   116584460.163 7  90845031.62146  22185272.128    22185278.681          47.000          40.0004
G03  21189132.515   111349680.407 8  86766017.96747  21189132.647    21189137.676          51.000          46.0004
G11  24431508.689   128388478.437 6 100042995.44644  24431508.870    24431514.856          39.000          24.0004
G14  22998294.352   120856956.920 7  94174276.11545  22998294.011    22998297.608          44.000          32.0004
G16  23984560.062   126039724.265 6  98212797.39243  23984559.527    23984564.312          39.000          22.0004
G22  20515423.247   107809344.272 8  84007316.81848  20515422.124    20515423.582          53.000          49.0004
G23  23280049.075   122337544.579 7  95327986.67545  23280048.862    23280050.991          46.000          35.0004
G26  22675800.648   119162177.013 7  92853652.67745  22675800.259    22675807.469          45.000          35.0004
G31  21134503.582   111062672.519 8  86542386.86447  21134503.443    21134505.422          53.000          45.0004
G32  24380604.566   128121011.885 6  99834587.74444  24380603.864    24380609.049          41.000          26.0004
> 2017 10 22 01 53 00.0000000  0 10
G01  22197540.668   116648928.193 8  90895266.44646  22197540.250    22197546.584          48.000          40.0004
G03  21177403.904   111288046.883 8  86717991.86047  21177403.987    21177409.199          50.000          46.0004
G11  24447755.816   128473841.398 6 100109512.02044  24447754.517    24447759.498          40.000          25.0004
G14  23009910.221   120917998.631 7  94221841.09045  23009909.783    23009912.422          44.000          32.0004
G16  23964644.151   125935067.242 6  98131246.52543  23964643.884    23964649.364          39.000          23.0004
G22  20511074.728   107786492.153 8  83989509.97648  20511073.470    20511074.909          53.000          49.0004
G23  23268181.211   122275176.056 8  95279387.85345  23268180.361    23268181.966          48.000          35.0004
G26  22662253.118   119090983.734 7  92798177.42646  22662252.734    22662259.564          45.000          36.0004
G31  21147217.010   111129482.054 8  86594446.24947  21147216.762    21147218.778          53.000          45.0004
G32  24394730.066   128195251.765 6  99892437.01444  24394731.066    24394736.342          40.000          26.0004
> 2017 10 22 01 53 30.0000000  0 10
G01  22209884.434   116713800.852 7  90945816.57646  22209884.871    22209891.382          47.000          40.0004
G03  21165738.974   111226746.356 8  86670225.23347  21165738.966    21165744.048          52.000          46.0004
G11  24464006.252   128559244.076 6 100176059.54543  24464005.227    24464009.745          40.000          23.0004
G14  23021538.933   120979102.515 7  94269454.49945  23021537.951    23021540.380          45.000          32.0004
G16  23944733.208   125830432.212 6  98049712.80943  23944732.971    23944736.119          40.000          23.0004
G22  20506809.228   107764074.897 9  83972041.99148  20506807.689    20506809.069          54.000          49.0004
G23  23256324.715   122212870.713 7  95230838.29045  23256324.326    23256325.716          46.000          35.0004
G26  22648770.456   119020130.172 7  92742966.89445  22648769.547    22648776.193          44.000          35.0004
G31  21160003.069   111196673.254 8  86646803.03547  21160002.868    21160004.926          53.000          45.0004
G32  24408866.732   128269525.815 6  99950312.89244  24408864.636    24408871.932          41.000          26.0004
> 2017 10 22 01 54 00.0000000  0 10
G01  22222306.923   116779075.236 8  90996679.72946  22222306.344    22222312.661          48.000          39.0004
G03  21154137.904   111165780.861 8  86622719.66847  21154137.722    21154142.724          53.000          46.0004
G11  24480264.637   128644683.209 6 100242635.50144  24480264.574    24480269.597          39.000          24.0004
G14  23033177.993   121040268.295 7  94317116.14945  23033176.693    23033180.124          44.000          32.0004
G16  23924827.814   125725822.260 6  97968198.65143  23924826.545    23924830.323          40.000          23.0004
G22  20502625.841   107742093.678 8  83954913.77948  20502624.689    20502626.196          53.000          49.0004
G23  23244480.488   122150628.131 8  95182337.60145  23244479.868    23244481.718          48.000          35.0004
G26  22635352.247   118949619.066 7  92688023.20246  22635351.853    22635358.880          45.000          36.0004
G31  21172861.572   111264243.152 9  86699454.90647  21172860.894    21172863.182          54.000          44.0004
G32  24423006.114   128343833.720 7 100008215.14044  24423006.906    24423011.197          42.000          28.0004
> 2017 10 22 01 54 30.0000000  0 10
G01  22234803.961   116844748.963 8  91047854.06346  22234803.809    22234810.142          49.000          39.0004
G03  21142600.325   111105152.997 8  86575477.19547  21142600.254    21142605.589          51.000          46.0004
G11  24496529.508   128730156.269 6 100309237.87643  24496529.810    24496533.627          39.000          23.0004
G14  23044829.408   121101496.420 7  94364826.37345  23044828.579    23044831.575          43.000          32.0004
G16  23904926.003   125621241.000 6  97886706.84043  23904924.706    23904928.872          38.000          23.0004
G22  20498526.760   107720550.320 8  83938126.75148  20498525.229    20498526.622          53.000          48.0004
G23  23232648.780   122088448.462 7  95133885.95545  23232647.636    23232648.743          46.000          35.0004
G26  22622000.072   118879453.722 7  92633348.95446  22621999.637    22622007.054          45.000          36.0004
G31  21185791.045   111332189.500 8  86752400.11647  21185790.737    21185792.782          53.000          45.0004
G32  24437152.143   128418175.828 6 100066144.04844  24437152.265    24437157.403          40.000          26.0004
> 2017 10 22 01 55 00.0000000  0 10
G01  22247375.763   116910819.070 7  91099337.26446  22247376.231    22247382.738          47.000          39.0004
G03  21131127.916   111044864.807 8  86528499.39947  21131127.880    21131133.069          52.000          47.0004
G11  24512801.875   128815659.845 6 100375864.02044  24512799.863    24512804.072          41.000          24.0004
G14  23056491.818   121162786.423 7  94412584.81445  23056491.008    23056494.583          42.000          31.0004
G16  23885031.525   125516691.733 6  97805239.93643  23885030.265    23885033.767          40.000          23.0004
G22  20494510.449   107699446.100 8  83921681.90648  20494509.221    20494510.618          53.000          49.0004
G23  23220829.720   122026331.874 8  95085483.47746  23220828.154    23220828.556          48.000          36.0004
G26  22608714.676   118809636.909 7  92578946.27146  22608713.938    22608720.694          45.000          36.0004
G31  21198791.979   111400509.538 8  86805636.52047  21198791.528    21198793.540          53.000          45.0004
G32  24451306.569   128492551.946 6 100124099.45644  24451305.580    24451311.741          40.000          27.0004
> 2017 10 22 01 55 30.0000000  0 10
G01  22260024.480   116977283.008 8  91151127.34046  22260024.153    22260030.357          48.000          39.0004
G03  21119720.388   110984918.673 8  86481788.13547  21119720.504    21119725.674          52.000          46.0004
G11  24529077.374   128901191.003 6 100442511.66844  24529076.441    24529081.572          39.000          24.0004
G14  23068167.699   121224138.285 7  94460391.45945  23068166.484    23068169.637          44.000          32.0004
G16  23865142.482   125412177.574 6  97723800.40943  23865141.481    23865145.067          40.000          23.0004
G22  20490578.020   107678782.627 8  83905580.49948  20490577.089    20490578.482          53.000          49.0004
G23  23209018.095   121964278.113 7  95037129.95145  23209018.276    23209020.437          46.000          35.0004
G26  22595495.494   118740171.720 7  92524817.57746  22595495.324    22595502.201          44.000          36.0004
G31  21211862.865   111469200.788 8  86859162.17347  21211863.008    21211865.205          53.000          45.0004
G32  24465463.793   128566962.133 6 100182081.39644  24465465.262    24465471.609          40.000          27.0004
> 2017 10 22 01 56 00.0000000  0 10
G01  22272745.887   117044137.755 7  91203221.94646  22272746.006    22272752.486          47.000          39.0004
G03  21108378.681   110925316.684 8  86435345.04947  21108378.625    21108383.762          51.000          46.0004
G11  24545357.154   128986746.941 6 100509178.61543  24545356.486    24545361.618          38.000          23.0004
G14  23079852.551   121285552.219 7  94508246.47145  23079852.541    23079856.256          43.000          31.0004
G16  23845261.296   125307701.632 6  97642390.66044  23845260.885    23845264.722          41.000          24.0004
G22  20486730.127   107658560.846 8  83889823.26948  20486729.037    20486730.422          53.000          49.0004
G23  23197223.585   121902287.030 7  94988825.19945  23197222.024    23197223.512          47.000          35.0004
G26  22582343.800   118671060.913 7  92470965.04246  22582343.807    22582350.946          44.000          36.0004
G31  21225004.727   111538260.310 9  86912974.79447  21225004.723    21225006.828          54.000          44.0004
G32  24479631.786   128641406.321 6 100240089.88744  24479631.749    24479636.282          40.000          25.0004
